stop_id,stop_code,stop_name,stop_desc,stop_lat,stop_lon,location_type,wheelchair_boarding
9738,6000,Westroads ORBT Station,,41.268837,-96.070713,0,1
9711,6001,90th & Dodge ORBT Station SE,,41.263232698941,-96.0516660877458,0,1
9712,6002,84th & Dodge ORBT Station SW,,41.261931486783,-96.0432503356608,0,1
9713,6003,Keystone Trail & Dodge ORBT Stop SE,,41.25969,-96.032745,0,1
9714,6004,72nd Dodge ORBT Station SE,,41.2596013276793,-96.0230322035466,0,1
9715,6005,62nd & Dodge ORBT Station SE,,41.25961,-96.007882,0,1
9716,6006,49th & Dodge ORBT Station SE,,41.2597,-95.987277,0,1
9717,6007,42nd Dodge ORBT Station SE,,41.25965,-95.974761,0,1
9718,6008,33rd & Dodge ORBT Stop SW,,41.25976,-95.961817,0,1
9719,6009,Park Ave & Douglas ORBT Station SE,,41.2587505460403,-95.9561283457718,0,1
9720,6010,24th & Douglas ORBT Station SE,,41.2586926190889,-95.946525716269,0,1
9721,6011,19th & Douglas ORBT Station SW,,41.25864,-95.941422,0,1
2796,1298,Douglas & 16th SW,,41.2586483177296,-95.9373953306076,0,1
9723,6013,10th & Douglas ORBT Station SW,,41.258615,-95.929537,0,1
9724,6014,8th & Farnam ORBT Stop NW,,41.258022,-95.92649,0,1
9750,3695,Dodge & 14th MB,,41.2596619998322,-95.9352189379996,0,0
360,1778,16th & Dodge SW,,41.259345,-95.93718,0,1
948,1779,16th & Farnam NW,,41.25783,-95.93718,0,1
354,1973,Farnam & 19th NE,,41.25758,-95.941122,0,1
4996,2493,19th & Dodge SE,,41.25945,-95.94115,0,1
749,2494,19th & Capitol Ave SE,,41.2604720076447,-95.9411242140127,0,1
741,1149,19th & Chicago SE,,41.2622357901419,-95.9410941750948,0,1
9233,2495,Cass & 20th NE,,41.2637463225917,-95.942211419952,0,1
9234,2496,20th & California NE,,41.26491,-95.94241,0,1
9235,2497,20th & Burt SE,,41.266749,-95.9424,0,1
8510,3071,20th & Cuming NE,,41.268202,-95.94238,0,1
9236,2498,20th & Nicholas SE,,41.2698722250843,-95.9423709585776,0,1
9237,2500,20th & Paul SE,,41.2715281324417,-95.9423610452158,0,1
9238,2501,20th & Charles SE,,41.2726445138642,-95.9423475398151,0,1
9405,2502,20th & Clark SE,,41.2751262519978,-95.9423308256049,0,1
976,2503,20thd & Grace SE,,41.2768004717172,-95.942301472746,0,1
3938,2504,20th & Burdette NE,,41.2790026407565,-95.942275930735,0,1
3978,2505,20th & Lake SE,,41.281379249594,-95.9422137357259,0,1
3962,2506,Florence Blvd & Corby SE,,41.283746,-95.9422,0,1
953,2507,Florence Blvd & Locust SE,,41.284933170984,-95.9421919013873,0,1
918,2508,Florence Blvd & Wirt SE,,41.286707,-95.9422,0,1
3987,2509,Florence Blvd & Spencer SE,,41.2877542468978,-95.9421907147076,0,1
4019,2510,Florence Blvd & Emmet SE,,41.289483,-95.94219,0,1
772,2511,Florence Blvd & Pinkney SE,,41.2903861876202,-95.9421816363019,0,1
1541,2512,Florence Blvd & Pratt SE,,41.2921758978582,-95.9421717479175,0,1
1604,2513,Florence Blvd & Manderson SE,,41.293231,-95.94218,0,1
910,2514,Florence Blvd & Laird SE,,41.29459,-95.94218,0,1
905,3007,Florence Blvd & Sprague SE,,41.2958677000606,-95.9421614535424,0,1
838,2515,Florence Blvd & Sahler SE,,41.297265,-95.94216,0,1
5084,2516,Ames & Florence Blvd NW,,41.29963,-95.942598,0,1
756,2517,Ames & 22nd NE,,41.29963,-95.944212,0,1
9659,3008,Ames & 24th NE,,41.29963,-95.946721,0,1
9406,2518,Ames & 25th NE,,41.2996203752041,-95.9491306035734,0,1
4371,1613,Ames & 29th NE,,41.2995879588263,-95.9547926762896,0,1
9599,3250,North Omaha TC Bay 1,,41.297803,-95.958597,0,1
705,1302,Ames & 31st Ave NW,,41.2995728322442,-95.9597857951885,0,1
683,1303,Ames & 33rd NW,,41.2995579433878,-95.9618059265991,0,1
736,1304,Ames & 34th NE,,41.2995500530925,-95.9637469392402,0,1
702,1305,Ames & 36th NE,,41.29955,-95.966025,0,1
710,1306,Ames & 38th NE,,41.29955,-95.96966,0,1
5615,3009,Ames & 40th NE,,41.2995684370092,-95.9720454390577,0,1
4170,1308,Ames & 40th Ave NW,,41.2995736595375,-95.9737991445038,0,1
6536,3010,Ames & 42nd NE,,41.2995800000026,-95.97576,0,1
588,2519,Ames & Fontenelle Blvd NE,,41.29958,-95.978939,0,1
759,2520,Ames & 46th NE,,41.2995969762268,-95.9819650743676,0,1
566,2521,Ames & 48th NE,,41.2996367102229,-95.9852722213682,0,1
576,2522,Ames & 49th NE,,41.29964,-95.987016,0,1
636,2523,Ames & 51st NW (Walmart),,41.29964,-95.991921,0,1
626,2524,Ames & 52nd NE,,41.29964,-95.994799,0,1
693,2525,Ames & 54th NW,,41.29962,-95.997489,0,1
703,2526,Ames & 55th NW,,41.2996052013173,-95.9986227361096,0,1
714,2527,Ames & 56th NW,,41.2995787074154,-96.0006988476626,0,1
9407,2528,Ames & Taylor NE,,41.29956,-96.002993,0,1
9660,3011,Ames & 60th NE,,41.29955,-96.004458,0,1
802,2530,Ames & 62nd NE,,41.29955,-96.008075,0,1
610,2531,Ames & 65th NE,,41.29957,-96.01158,0,1
564,2532,Ames & 66th NE,,41.29958,-96.014091,0,1
9626,3350,Ames & 71st NE,,41.2994115545852,-96.0208233406114,0,1
9639,3348,72nd & Ames SW,,41.2989780567887,-96.0239154987094,0,1
8807,2533,72nd & Lawndale SW,,41.2969560871898,-96.023926118381,0,1
3069,2534,72nd & Graceland Dr SW,,41.2957535396144,-96.0239508822488,0,1
1555,2535,72nd & Spaulding NW,,41.29454,-96.02396,0,1
591,2536,72nd & Pratt NW,,41.2924842782477,-96.0239961906226,0,1
1539,2537,72nd & Pinkney NW,,41.290671,-96.02403,0,1
1463,2538,72nd & Bedford Ave NW,,41.288859,-96.02391,0,1
1436,2539,72nd & Wirt NW,,41.2870286074112,-96.0239032368859,0,1
2423,3012,72nd & Maple NW,,41.285283,-96.0239,0,1
9408,2540,72nd & Ohio NW,,41.2830428936759,-96.0238929610784,0,1
7951,2541,72nd & Lake NW,,41.281613,-96.0239,0,1
7952,2542,72nd & Grant NW,,41.279743,-96.02389,0,1
4849,3013,72nd & Blondo NW,,41.278101,-96.02388,0,1
706,2543,72nd & Decatur NW,,41.275739,-96.02389,0,1
2154,2544,72nd & Seward NW,,41.274313,-96.02389,0,1
528,2545,72nd & Hamilton SW,,41.2721712725652,-96.0238845531066,0,1
825,2546,72nd & Western Ave NW,,41.2707625742851,-96.0238764570952,0,1
2445,2547,72nd & Izard SW,,41.268678,-96.02389,0,1
2888,2548,72nd & Burt SW,,41.2666265032854,-96.0238816281209,0,1
849,2549,72nd & Webster SW,,41.2647972940565,-96.023906743836,0,1
2304,3014,72nd & Cass SW,,41.262471,-96.02391,0,1
9535,3015,72nd & Dodge NW,,41.2602179113019,-96.0238504592642,0,1
9411,3016,72nd & Dodge SW,,41.2589883372702,-96.0238785144072,0,1
2293,2550,72nd & Howard NW,,41.2563108776776,-96.0238982417688,0,1
2245,2551,72nd & Jones NW,,41.254529,-96.02391,0,1
2252,2552,72nd & Rose Blumpkin Dr NW,,41.251941,-96.02391,0,1
2035,2553,72nd & Pacific NW,,41.249926,-96.02394,0,1
2415,3017,72nd & Poppleton Ave NW,,41.248061,-96.02395,0,1
8024,2259,72nd & Pine SW,,41.244542,-96.02396,0,1
2018,2260,72nd & Cedar NW,,41.240346,-96.02398,0,1
1993,2086,Mercy Rd & 72nd SE,,41.2379182355882,-96.0233011529449,0,1
8759,2087,Mercy Rd & College of St. Marys SW,,41.23791,-96.021223,0,1
3814,2088,Mercy Rd & 68th SW,,41.237898,-96.0180350003766,0,1
7961,1143,14th & Dodge NW,,41.2598703461606,-95.9344909820347,0,1
5034,1006,Capitol Ave & 16th NE,,41.26067,-95.9369100040947,0,1
9417,1144,16th & Chicago SE,,41.2625631375608,-95.9371024019512,0,1
9205,1007,16th & Cass St. SE,,41.2636235898021,-95.9371272283286,0,1
9131,1008,16th & Mike Fahey SE,,41.2657199105333,-95.9371119819696,0,1
7279,1009,16th & Cuming NW,,41.26796,-95.937596,0,1
9565,1010,18th & Cuming NE,,41.26796,-95.938938,0,1
9244,3061,20th & Cuming NE,,41.26798,-95.942012,0,1
7976,3060,22 & Cuming St NW,,41.26797,-95.946042,0,1
3724,3059,24th & Cuming NW,,41.26796,-95.947808,0,1
7472,1014,25th Ave & Cuming NE,,41.26795,-95.949292,0,1
7407,1015,27th & Cuming NE,,41.26795,-95.951077,0,1
8511,1016,29th & Cuming NE,,41.26796,-95.954632,0,1
6757,3058,30th & Cuming NW,,41.2678844698545,-95.9571114345114,0,1
1873,1018,32nd & Cuming NE,,41.26797,-95.960222,0,1
1876,3057,33rd & Cuming NW,,41.26797,-95.961668,0,1
2195,1020,36th & Cuming NE,,41.2679241571476,-95.9663056784417,0,1
2236,1021,38th & Cuming NE,,41.26794,-95.968762,0,1
3473,3056,40th & Cuming NE,,41.26796,-95.972783,0,1
2425,1023,42nd & Cuming NE,,41.26793,-95.975975,0,1
1032,1024,43rd Ave & Cuming NE,,41.26794,-95.977963,0,1
1036,1025,45th & Cuming NE,,41.26794,-95.980167,0,1
2455,1026,NW Radial Hwy & Nicholas NE,,41.2701567996282,-95.9829209304833,0,1
1055,1027,NW Radial Hwy & Hamilton SE,,41.2720791639483,-95.9834758085837,0,1
2469,1028,NW Radial Hwy & Seward SE,,41.274088,-95.98336,0,1
3089,1029,NW Radial Hwy & Decatur SE,,41.276187,-95.98338,0,1
3097,1030,NW Radial Hwy & Burdette SE,,41.278652,-95.98339,0,1
1113,1031,48th & NW Radial Hwy NE,,41.28151,-95.98526,0,1
2122,1032,49th & NW Radial Hwy NE,,41.2814711738587,-95.9872002664104,0,1
3112,1033,50th & NW Radial Hwy NW,,41.2817811279827,-95.990766143167,0,1
1673,1034,51st/Miami & NW Radial Hwy NW,,41.2832807839437,-95.9932148220054,0,1
3190,1035,52nd & NW Radial Hwy NE,,41.2844123251318,-95.9950120386643,0,1
9418,2987,52nd & NW Radial Hwy NW,,41.28471,-95.99545,0,1
1691,3003,NW Radial & 54th NE,,41.2850395055186,-95.9973651125629,0,1
1702,1037,NW Radial & 56th NE,,41.2850118040898,-95.9992264973526,0,1
1595,1038,Maple & NW Radial Hwy NW,,41.28498,-96.003061,0,1
3098,3055,60th & Maple NW,,41.285,-96.005122,0,1
1693,1040,61st & Maple NE,,41.285,-96.007015,0,1
3078,1041,63rd & Maple NE,,41.285,-96.009464,0,1
2468,1042,65th & Maple NE,,41.28502,-96.011899,0,1
2457,1043,66th Ave & Maple NE,,41.28503,-96.014829,0,1
2458,1044,67th Ave & Maple NE,,41.28503,-96.016624,0,1
2449,1045,69th & Maple NE,,41.28505,-96.019041,0,1
1532,1046,70th Ave & Maple NE,,41.2850591343396,-96.0214252550881,0,1
689,3054,72nd & Maple NE,,41.28512,-96.023621,0,1
7136,1048,73rd & Maple MB,,41.28513,-96.025633,0,1
2243,1049,75th & Maple NE,,41.28513,-96.0288,0,1
2237,1050,76th/Benson Gardens & Maple NE,,41.28512,-96.030943,0,1
2233,1051,78th & Maple NE,,41.28512,-96.033309,0,1
2193,1052,80th & Maple NE,,41.28512,-96.036525,0,1
2190,1053,81st & Maple NE,,41.28512,-96.038829,0,1
2187,1054,83rd & Maple NE,,41.28513,-96.04193,0,1
1875,1055,85th & Maple NE,,41.28513,-96.04448,0,1
1871,1056,Keystone Dr & Maple NE,,41.28513,-96.046656,0,1
8512,1057,88th & Maple NE,,41.285137076,-96.048613332,0,1
1858,3053,90th & Maple NW,,41.2851468656868,-96.0531068636518,0,1
1825,1059,93rd & Maple NE,,41.28514,-96.055676,0,1
1823,1060,94th Ave & Maple NW,,41.2851468809258,-96.0587868600086,0,1
1759,1061,97th & Maple NE,,41.28514,-96.064202,0,1
1757,1062,Maplewood Blvd & Maple NE,,41.28517,-96.06652,0,1
8513,1063,Maplewood Blvd & Maple NE,,41.28516,-96.068022,0,1
1737,1064,102nd & Maple SW,,41.2846012477178,-96.0717360460581,0,1
1642,1065,102nd & Ohio NW,,41.281975,-96.07172,0,1
9366,1066,102nd & Grant NW,,41.2799557261042,-96.0717035549547,0,1
9158,3052,102nd & Blondo NW,,41.278049840892,-96.0717458854727,0,1
1144,1068,102nd Ave & 102nd NW,,41.275848,-96.07179,0,1
1037,1069,102nd & Seward NW,,41.2733847505333,-96.0717787782918,0,1
3889,1070,102nd & Hamilton NW,,41.2718934753539,-96.0718139648725,0,1
9739,3629,102nd st & Nicholas SW,,41.2684537538844,-96.0717952815413,0,1
6241,3630,Regency Pkwy & N Regency Cir NW,,41.2604867944573,-96.0691612078522,0,1
6308,3631,Regency Pkwy & S Regency Cir NE,,41.2579487154358,-96.0724809695485,0,1
6353,3632,Regency Cir & Marriott SE,,41.2602521951219,-96.0726047560976,0,1
9420,1267,102nd & Westroads Entr 4 MB,,41.2664014119146,-96.0714674869267,0,1
9627,3272,Westroads TC Bay 4,,41.268666,-96.07124,0,1
9609,3260,North Omaha TC Bay 12,,41.2980559989104,-95.9579770286006,0,1
1534,2816,30th & Ames SE,,41.2993616459844,-95.9565359014599,0,1
6362,1668,Ames & 29th SE,,41.299582691434,-95.9551350567913,0,1
4348,1669,Ames & 25th SW,,41.2996184639261,-95.949514328866,0,1
4400,3027,Ames & 24th SW,,41.29963,-95.947109,0,1
3763,2890,24th & Sahler NW,,41.297004,-95.94698,0,1
8845,3030,24th & Sprague NW,,41.2961752014762,-95.9469726583487,0,1
4387,2891,24th & Spaulding NW,,41.294494802702,-95.9469784837838,0,1
3755,3216,24th & Pratt SW,,41.2920165606001,-95.9469829238274,0,1
4376,2893,24th & Pinkney SW,,41.29039,-95.94699,0,1
3744,2894,24th & Bristol SW,,41.28929,-95.94699,0,1
3672,2895,24th & Spencer NW,,41.287992,-95.947,0,1
4364,2896,24th & Binney NW,,41.286127,-95.94701,0,1
3729,2897,24th & Maple NW,,41.284788,-95.94702,0,1
5709,2898,24th & Miami NW,,41.283448,-95.94702,0,1
3725,2899,24th & Lake NW,,41.281646,-95.94703,0,1
3750,2900,24th & Grant NW,,41.280182,-95.94704,0,1
3752,2901,24th & Burdette NW,,41.2793662765071,-95.9470465717256,0,1
3676,2902,24th & Blondo SW,,41.277291,-95.94704,0,1
3745,2903,24th & Decatur NW,,41.275743,-95.94704,0,1
3742,2904,24th & Seward NW,,41.273982,-95.94704,0,1
7486,2905,24th & Hamilton NW,,41.2721554556674,-95.9470245959908,0,1
6367,2906,24th & Metro Entrance NW,,41.269235,-95.94703,0,1
9655,3031,24th & Cuming NW,,41.268107,-95.94703,0,1
3686,2907,24th & California NW,,41.264953635647,-95.9470160362776,0,1
5297,2908,24th & Chicago NW,,41.2627943477551,-95.9470854466494,0,1
8846,2910,24th & Dodge NW,,41.2606465653171,-95.9468705745665,0,1
1766,2911,25th & Dodge SW,,41.2594158559259,-95.9482369360776,0,1
9656,2912,25th & Farnam NW,,41.2580282599772,-95.9482127434436,0,1
7272,2913,24th Ave & Harney NW,,41.2567720929334,-95.9476780087125,0,1
7445,3032,24th Ave & St Marys Ave SW,,41.2536665319588,-95.9474094969072,0,1
2637,3033,24th & Leavenworth NW,,41.252543,-95.94704,0,1
2643,2914,24th & Mason NW,,41.2509802908126,-95.9470819947125,0,1
2654,2915,24th & Pacific SW,,41.2488242344516,-95.9470364736221,0,1
7075,2916,24th & Poppleton NW,,41.247097,-95.94702,0,1
9176,2917,24th & Woolworth NW,,41.24542,-95.94702,0,1
9177,2918,24th & Hickory NW,,41.2434795967783,-95.9469928061996,0,1
2819,2919,24th & Martha NW,,41.238392,-95.94703,0,1
2844,2921,24th & Bancroft NW,,41.234338,-95.94704,0,1
2855,2922,24th & Oak NW,,41.232469,-95.94705,0,1
9513,3034,24th & Vinton NW,,41.229627,-95.94705,0,1
2647,2844,24th & Deer Park Blvd SW,,41.227908,-95.94711,0,1
2652,2845,24th & B St NW,,41.2247,-95.9471,0,1
2740,2846,24th & D St NW,,41.222252,-95.94703,0,1
2355,2847,24th & F St NW,,41.219825,-95.94703,0,1
2321,2848,24th & H St NW,,41.217511,-95.94704,0,1
2383,2849,24th & J NW,,41.214919,-95.94705,0,1
2393,3035,24th & L St NW,,41.21294,-95.94705,0,1
2397,2850,24th & M St NW,,41.2112180340118,-95.9470567685767,0,1
2871,2851,24th & N St NW,,41.209841,-95.94706,0,1
2222,2852,24th & O St NW,,41.208671,-95.94706,0,1
7861,2853,24th & P St NW,,41.2070697183517,-95.9470511490529,0,1
7864,2854,Q St & 24th NW,,41.20559,-95.947349,0,1
9617,3279,Metro College TC Bay 7,,41.206415,-95.956378,0,1
8495,1375,MCC Exit & Babe Gomez Ave SE,,41.209143908026,-95.9577265154091,0,1
8215,1372,Babe Gomez Ave & 30th SE,,41.20857,-95.95488,0,1
1511,1373,27th & Babe Gomez Ave SW,,41.2062093716814,-95.9530335752212,0,1
9216,2855,Q St & 28th NW,,41.2055634509753,-95.9549960395319,0,1
2510,2856,30th & Q St SW,,41.2051973682173,-95.9577567054636,0,1
2782,2857,30th & S St NW,,41.2035528012802,-95.957741064163,0,1
2354,2858,30th & U St SW,,41.201349,-95.95774,0,1
2763,2859,30th & W St NW,,41.1998851258641,-95.9577223361303,0,1
9657,2860,Y St & 30th SE,,41.1981927041939,-95.9573000735637,0,1
9376,2861,Y St & 28th (Kroc Center Ent),,41.1982,-95.954691,0,1
9375,2862,27th & Z St NW,,41.1975670820857,-95.9528253882292,0,1
2804,2863,27th & Madison NW,,41.19529,-95.9528,0,1
2799,2864,27th & Drexel NW,,41.1928477007787,-95.9528020161099,0,1
2795,2865,27th & Polk NW,,41.1918694248523,-95.952771339645,0,1
2793,2866,27th & Harrison NW,,41.1910053275108,-95.9528099563319,0,1
3627,2867,Harrison & 28th NE,,41.19092,-95.954974,0,1
2741,2868,Harrison & 30th NE,,41.191016,-95.957558,0,1
9600,3346,Aksarben Dr & Frances NE,,41.2403374524752,-96.0176543752475,0,1
8687,1235,Aksarben Dr & Pine SE,,41.2432615275966,-96.018864315727,0,1
8023,3018,72nd & Pine NE,,41.245321,-96.02396,0,1
2251,2782,72nd & Poppleton Ave NE,,41.247193,-96.02396,0,1
2248,2783,72nd & Pacific NE,,41.249429397923,-96.0239421211073,0,1
2040,2784,72nd & Rose Blumpkin Dr SE,,41.2515823138463,-96.0239176492308,0,1
3671,2785,72nd & Jones SE,,41.2541268270907,-96.0239078700824,0,1
2246,2786,72nd & Howard SE,,41.255848,-96.0239,0,1
9352,3019,72nd & Dodge SE,,41.2585034605054,-96.0238810908114,0,1
9255,3020,72nd & Dodge NE,,41.2600796670367,-96.0238540110988,0,1
9402,2787,72ND & Omaha Academy Of Ballet NE,,41.26188,-96.02391,0,1
2438,3021,72nd & Cass NE,,41.26379,-96.02392,0,1
8808,2788,72nd & Burt SE,,41.26693,-96.02388,0,1
2883,2789,72nd & Izard NE,,41.268401,-96.02389,0,1
665,2790,72nd & Western Ave SE,,41.270408,-96.02388,0,1
6191,2791,72nd & Hamilton SE,,41.2718795387082,-96.0238784113412,0,1
2849,2792,72nd & Seward SE,,41.274027,-96.02389,0,1
2842,2793,72nd & Decatur SE,,41.27538,-96.02389,0,1
6585,3022,72nd & Blondo SE,,41.277583002593,-96.023886088159,0,1
696,2794,72nd & Grant SE,,41.279407,-96.02389,0,1
4855,2795,72nd & Lake SE,,41.281272,-96.0239,0,1
723,2796,72nd & Ohio SE,,41.282471,-96.0239,0,1
3393,3023,72nd & Maple SE,,41.284791,-96.02389,0,1
5670,2797,72nd & Wirt SE,,41.286758,-96.0239,0,1
569,2798,72nd & Bedford Ave NE,,41.288873,-96.02391,0,1
560,2799,72nd & Pinkney SE,,41.2905255722379,-96.0239179660057,0,1
1579,2800,72nd & Pratt SE,,41.292208,-96.02387,0,1
599,2801,72nd & Spaulding SE,,41.2939708168806,-96.0238237596249,0,1
584,2802,72nd & Sprague SE,,41.2954282155965,-96.0237961146789,0,1
9514,3349,72nd & MilitaryAve SE,,41.296959,-96.02379,0,1
7007,1192,72nd & Military Ave NE,,41.2982373724226,-96.0237728142719,0,1
899,2463,72nd & Ames Ave SE,,41.2992420737219,-96.0237670225922,0,1
7031,1189,Ames & 71st SW,,41.2994218108108,-96.0223708648649,0,1
886,2803,Ames & 66th SW,,41.29949,-96.014481,0,1
758,2804,Ames & 65th SW,,41.2994811398577,-96.0118504124555,0,1
674,2806,Ames & 62nd SE,,41.29947,-96.007646,0,1
8809,3024,Ames & 60th SW,,41.2994632340865,-96.0049645996126,0,1
8810,2807,Ames & Taylor SW,,41.29947,-96.003383,0,1
8811,2808,Ames & 56th SW,,41.2995,-96.000585,0,1
724,2809,Ames & 54th SW,,41.2995279249285,-95.9975261827975,0,1
3950,2810,Ames & 52nd SW,,41.2995462533561,-95.9953097852087,0,1
8813,2811,Ames & 51st SW (Walmart),,41.29956,-95.992349,0,1
8815,2812,Ames & 49th SW,,41.29956,-95.987372,0,1
771,2813,Ames & 48th SW,,41.29957,-95.985918,0,1
557,2814,Ames & 46th SE,,41.2995287953368,-95.9821124222798,0,1
874,2815,Ames & Fontenelle Blvd SW,,41.29951,-95.980159,0,1
9658,3025,Ames & 42nd SW,,41.2995773915014,-95.9761495569405,0,1
559,3026,Ames & 41st SE,,41.2995772876189,-95.9742345142698,0,1
5616,1436,Ames & 40th SW,,41.29957,-95.972316,0,1
1381,1437,Ames & 38th SE,,41.29955,-95.969507,0,1
690,1438,Ames & 37th SE,,41.2995471046455,-95.9682025574613,0,1
731,1439,Ames & 36th SW,,41.299549660945,-95.9666544119576,0,1
1438,1440,Ames & 34th Ave SW,,41.29955,-95.964002,0,1
745,1441,Ames & 33rd SW,,41.2995581374159,-95.9617581956804,0,1
4528,1442,Ames & 31st Ave SW,,41.299574750377,-95.9595594555117,0,1
9611,3262,North Omaha TC Bay 14,,41.298055,-95.958442,0,1
1612,2817,Ames & 22nd SE,,41.29963,-95.94425,0,1
2308,2818,Florence Blvd & Ames Ave SW,,41.299019,-95.94216,0,1
3908,2819,Florence Blvd & Sahler NW,,41.297128,-95.94216,0,1
1556,3028,Florence Blvd & Sprague NW,,41.296129,-95.94216,0,1
9536,2820,Florence Blvd & Laird NW,,41.29469,-95.94218,0,1
897,2821,Florence Blvd & Manderson NW,,41.293357,-95.94218,0,1
1605,2822,Florence Blvd & Pratt NW,,41.2924363875309,-95.9421720356348,0,1
1644,2823,Florence Blvd & Pinkney NW,,41.290815,-95.94218,0,1
760,2824,Florence Blvd & Emmet NW,,41.2897589926452,-95.9421883085889,0,1
875,2825,Florence Blvd & Spencer NW,,41.288033,-95.94219,0,1
925,2826,Florence Blvd & Binney SW,,41.2856232405429,-95.9421958322789,0,1
3989,2827,Maple & 20th NW,,41.2843239510985,-95.9421984521387,0,1
757,2828,Miami & 20th SW,,41.282979,-95.9422,0,1
781,2829,Lake & 20th NW,,41.2817163049231,-95.9422063806154,0,1
9403,2830,20th & Willis Ave SW,,41.2800903034727,-95.9422471800505,0,1
791,2831,20th & Burdette NW,,41.2790167271714,-95.94227572049,0,1
853,2832,20th & Grace NW,,41.2769721641362,-95.9422993223225,0,1
822,2833,20th & Clark NW,,41.2756057888237,-95.9423235965033,0,1
804,2884,20th & Charles NW,,41.273384,-95.94234,0,1
715,2885,20th & Paul NW,,41.2718859953784,-95.942357653395,0,1
704,2886,20th & Nicholas NW,,41.2701616833365,-95.9423688983716,0,1
694,3029,20th & Cuming NW,,41.268476,-95.94238,0,1
7747,2887,20th & Burt NW,,41.2670788126761,-95.9423971654728,0,1
5892,2888,20th & California NW,,41.264843,-95.94241,0,1
667,2889,20th & Chicago SW,,41.2624407512367,-95.9424378187085,0,1
648,3291,20th & Davenport SW,,41.260652,-95.94241,0,1
9053,3320,20th & Dodge St NW,,41.2601163092786,-95.9423961958763,0,1
5684,2559,Harney & 19th SW,,41.25656,-95.941009,0,1
931,2561,Harney & 16th SW,,41.25655,-95.937432,0,1
393,3646,Harney & 15th SW,,41.25655,-95.93606,0,1
9247,2686,13th & Farnam SE,,41.2573366160318,-95.9332380548106,0,1
748,1623,13th St & Douglas SE,,41.2584537559287,-95.9332224505799,0,1
7666,9990,22nd & Cuming NE,,41.268603,-95.943781,0,1
9603,3254,North Omaha TC Bay 4,,41.2979283285978,-95.9578894808185,0,1
805,1443,30th & Ames SW,,41.29958,-95.956795,0,1
4279,3247,24th & Meredith SW,,41.3002816167573,-95.9469594437211,0,1
9431,1671,24th & Larimore SE,,41.3022484171615,-95.9469114689692,0,1
9432,1672,24th & Saratoga SE,,41.303722,-95.9469,0,1
3646,1673,24th & Fort SE,,41.3063911539812,-95.9469267576044,0,1
9433,1674,24th & Ogden SE,,41.3073671668317,-95.9469145074038,0,1
2993,1675,24th & Ellison SE,,41.3092089812308,-95.9469421981122,0,1
6563,1676,24th & Himbaugh SE,,41.3109770061583,-95.9469425603719,0,1
6356,1677,24th & Laurel SE,,41.3120360222165,-95.9469475781855,0,1
1650,1678,24th & Kansas SE,,41.3138465194825,-95.9469693633272,0,1
3438,1679,24th & Miller Park Dr SE,,41.3155612032933,-95.9469512799612,0,1
1279,1680,24th & Redick SE,,41.317533,-95.94692,0,1
4959,1681,24th & Newport SE,,41.3193294870016,-95.9469516880416,0,1
9652,1682,Titus & 24th NW,,41.3206710134538,-95.9471872827317,0,1
5784,1683,Titus & 25th NE,,41.3206792542957,-95.9491980481381,0,1
329,1684,Titus & Minne Lusa Blvd NE,,41.3206517356431,-95.9516034627413,0,1
4563,1685,Minne Lusa Blvd & Ida NE,,41.3216530680283,-95.9517585434223,0,1
4566,1686,Minne Lusa Blvd & Vane NE,,41.3231473076923,-95.9512965384615,0,1
3614,1687,Minne Lusa Blvd & Iowa SE,,41.32440191582,-95.9509589869376,0,1
6558,1688,Martin & Minne Lusa Blvd NW,,41.3252319042419,-95.9514686073079,0,1
5188,1689,Martin & 28th NE,,41.3252123292201,-95.9543951850938,0,1
9380,3246,Martin & 30th NW,,41.3242529,-95.9576213,0,1
4340,1691,Martin & 33rd NE,,41.323289519573,-95.9607335373666,0,1
4355,1692,Martin & 34th NE,,41.3224933540984,-95.963130904918,0,1
4259,3236,Martin & Newport NW,,41.3195043120946,-95.9658633086608,0,1
7014,3235,Martin & Redick NW,,41.317618117647,-95.9673154705882,0,1
7047,1580,Redick & 38th NE,,41.31754,-95.96968,0,1
3560,1581,Redick & 40th NE,,41.3175,-95.973146,0,1
4226,1582,Redick & 42nd NE,,41.3174907708572,-95.9756095982626,0,1
6504,3244,Curtis & 42nd SE,,41.3157221492706,-95.9752491301591,0,1
4228,1584,Curtis & 40th SW,,41.3157292424521,-95.9734971143419,0,1
4246,1585,Curtis & 38th SW,,41.31573,-95.970008,0,1
1513,1586,Curtis & 37th SE,,41.31573,-95.967962,0,1
7905,1612,Fontenelle Blvd & Kansas NW,,41.3140970810811,-95.9677454864865,0,1
7908,1230,Fontenelle Blvd & Laurel NW,,41.31233,-95.96826,0,1
7910,1814,Fontenelle Blvd & Hartman NW,,41.3104428202246,-95.9688378876405,0,1
895,1307,Fontenelle Blvd & Jaynes NW,,41.3088198461538,-95.9696767692308,0,1
9078,1815,Sorensen Pkwy & 32nd SW,,41.3035809035144,-95.9605573878594,0,1
2170,1469,30th & Larimore NW,,41.30243,-95.95654,0,1
4357,1470,30th & Fowler NW,,41.30149,-95.95654,0,1
7000,1471,30th & Ames NW,,41.299829,-95.95653,0,1
9608,3259,North Omaha TC Bay 11,,41.2980649805042,-95.9577403044036,0,1
9605,3256,North Omaha TC Bay 6,,41.2979493776053,-95.9574218857442,0,1
8101,2327,J Creighton Blvd & Spaulding NW,,41.2942430682433,-95.9590528371843,0,1
8102,2331,J Creighton Blvd & Pratt NW,,41.2924194784466,-95.9590805969586,0,1
8103,2332,J Creighton Blvd & Pinkney NW,,41.290569,-95.95908,0,1
8104,2333,J Creighton Blvd & Bedford NW,,41.2891452624278,-95.9588574057804,0,1
8105,2334,Bedford Ave & 33rd NW,,41.2886777604333,-95.9615387480036,0,1
8847,2335,Bedford Ave & Malcolm X Ave NE,,41.2886609935421,-95.9635507749462,0,1
8106,2336,Bedford Ave & 36th Ave NE,,41.28867,-95.967042,0,1
8108,2337,Bedford Ave & 38th NE,,41.2886685373412,-95.9695403315746,0,1
3590,2999,Bedford Ave & 40th NE,,41.28867,-95.971969,0,1
4151,2338,Bedford Ave & 40th Ave NW,,41.2886708488665,-95.9739834785894,0,1
3581,3000,Bedford Ave & 42nd NE,,41.28868,-95.975552,0,1
8490,1316,Bedford Ave & 43rd NE,,41.28868,-95.977514,0,1
8491,1317,Bedford Ave & 44th Ave NE,,41.2886897378371,-95.9793241214981,0,1
7526,3001,Bedford Ave & 45th NE,,41.2886995601436,-95.9804980969479,0,1
8109,2339,Bedford Ave & Fontenelle Blvd NE,,41.2887,-95.982858,0,1
409,2340,Bedford Ave & 48th NE,,41.28862,-95.985318,0,1
515,2341,Bedford Ave & 49th NE,,41.288671080185,-95.9877111133385,0,1
264,2342,Bedford & 50th NE,,41.2886,-95.990195,0,1
8848,2343,Bedford Ave & 51st NE,,41.28867,-95.992662,0,1
4048,2344,Bedford Ave & 52nd NE,,41.2886117224066,-95.994888534025,0,1
6161,2345,52nd & Benson High NW,,41.28624,-95.99509,0,1
9480,3002,52nd & Maple NW,,41.285276,-95.99508,0,1
9248,2346,NW Radial & 58th NE,,41.285117934104,-96.0019691283237,0,1
9666,3004,NW Radial & 60th  NE,,41.2866049742268,-96.0046269329897,0,1
9212,2347,NW Radial & 61st NE,,41.28681,-96.007087,0,1
7883,2348,Military Ave & Bedford Ave SE,,41.2881982819956,-96.0100064642082,0,1
1725,2349,Military Ave & Pinkney SE,,41.2902722163439,-96.0110820481814,0,1
1730,2350,Military Ave & 65th Ave NE,,41.2914312,-96.0127424,0,1
9481,2351,Military Ave & 66th NE,,41.2922582711631,-96.0142207680661,0,1
1119,2352,Military Ave & 67th Ave NE,,41.2935390464399,-96.0162283112771,0,1
8619,2353,Military Ave & 69th NE,,41.2951999666478,-96.0191995641606,0,1
1132,2354,Military Ave & 70th Ave NE,,41.2963667471599,-96.0213074389746,0,1
1593,3356,Military Ave & 72nd NE,,41.2969765976086,-96.022422605288,0,1
7142,2355,Military Ave & 72nd NW,,41.2983206875306,-96.0249803168704,0,1
1107,2356,Military Ave & Keystone Dr NW,,41.2997547252647,-96.0278279167116,0,1
1112,2357,Military Ave & Aurora Dr NE,,41.3007448373102,-96.0297421908894,0,1
8620,2358,Templeton Dr & 78th Ave NW,,41.3021524753911,-96.034175615414,0,1
215,2359,Templeton Dr & 80th NE,,41.3017356649398,-96.0363431994892,0,1
229,2360,Templeton Dr & 81st NE,,41.3017690869436,-96.0387240854574,0,1
235,2361,Templeton Dr & 83rd NE,,41.3017993032764,-96.0411270898884,0,1
288,2362,Templeton Dr & 85th/84th NE,,41.3022496535316,-96.043337410409,0,1
285,2363,Templeton Dr & Grand Ave NW,,41.3035042122016,-96.0460388541114,0,1
9482,2364,Templeton Dr & Browne SE,,41.3041162307692,-96.0467441538462,0,1
9567,2365,Templeton Dr & Democracy Park SE,,41.305644405546,-96.0473227331022,0,1
8621,2366,Fort & 88th NW,,41.3067,-96.050339,0,1
9667,3005,Fort & 90th NW,,41.3066851808134,-96.0531351883236,0,1
1658,2367,Fort & 91st Ave NE,,41.3066976134791,-96.0546571457238,0,1
1600,2368,Fort & 93rd NW,,41.30669,-96.057462,0,1
1048,2369,Fort & North Oaks Blvd NE,,41.30669,-96.060911,0,1
1704,2370,Fort & 97th Ave NE,,41.30669,-96.063537,0,1
5651,2371,Fort & 99th/Parkview Dr NE,,41.30674,-96.06662,0,1
8533,2372,99th & Masters Elementary SE,,41.308105,-96.06699,0,1
8534,2373,99th & Hartman Ave NE,,41.3102385266448,-96.0670211944213,0,1
8429,2374,99th & Laurel Ave NE,,41.311736,-96.06705,0,1
9483,2375,99th & Military RD SE,,41.31359,-96.06704,0,1
8535,2376,99th & Walmart Entrance NE,,41.315924,-96.06639,0,1
9710,3357,99th & Reddick Ave SE,,41.3175320277456,-96.0663154196532,0,1
9706,3373,108th & Ida St SW,,41.320886122292,-96.0814305757961,0,1
9708,3374,108th & Military/Reddick NW,,41.3176838646409,-96.0814424281768,0,1
9709,3626,108th & Crown Point/Military NW,,41.3139569175082,-96.081423808902,0,1
3196,2383,108th & Ellison Ave NW,,41.311036,-96.08144,0,1
1073,2384,108th & Jaynes Plz NW,,41.3096683940312,-96.0814557761592,0,1
1039,2385,108th & Ogden Plz NW,,41.3080619444536,-96.0814136658251,0,1
8625,3006,108th & Fort SW,,41.305886,-96.08144,0,1
1066,2386,108th & Grande Ave NW,,41.3042970823453,-96.0814275052868,0,1
1086,2387,108th & Fowler Ave SW,,41.3011766386962,-96.0814272586377,0,1
1078,2388,108th & Taylor NW,,41.299273,-96.08144,0,1
7622,2389,108th & Boyd SW,,41.2974144882264,-96.081442799135,0,1
1062,2390,108th & Old Maple Rd NW,,41.294637,-96.08144,0,1
289,2391,108th & Manderson Plz NW,,41.2929863801528,-96.0814379741288,0,1
1043,2392,108th & Emmet NW,,41.289933,-96.08145,0,1
1753,2393,108th & Bedford Ave NW,,41.2889490773068,-96.0814755461346,0,1
7259,2394,108th & Cottonwood Ln NW,,41.2862832735,-96.0814344189891,0,1
8626,2395,108th & Corby NW,,41.2843683807578,-96.081472393238,0,1
8627,2396,108th & Lake NW,,41.2817567625834,-96.0814450939248,0,1
8628,2397,108th & Burdette NW,,41.2798891989951,-96.0814313747069,0,1
6322,2398,108th & Blondo SW,,41.2768710960604,-96.0813549347005,0,1
9484,2399,108th & Decatur NW,,41.2757628021341,-96.0813152476656,0,1
6291,2400,108th & Hamilton Plz NW,,41.2725475601446,-96.0813633536396,0,1
9152,2401,North Mill & 108th Plz NW,,41.269296602626,-96.0823888984431,0,1
9151,2402,North Mill & 109th Ct NW,,41.26929,-96.083769,0,1
1646,2403,Mill Valley & North Mill SW,,41.2685,-96.08624,0,1
629,2404,Mill Valley & 109th Ct NW,,41.2670445535881,-96.0854108164026,0,1
9150,2405,Mill Valley & 108th Ave SW,,41.2666370641441,-96.083673499789,0,1
9149,2406,108th Ave & 108th Ct NW,,41.2656610899654,-96.0835635813149,0,1
9568,2407,W Dodge Frontage Rd S & Marriott NW,,41.2621459148497,-96.0843296199219,0,1
940,2408,Davenport & W Dodge Frontage Rd S SW,,41.2614905190989,-96.0874221429971,0,1
8824,2409,Davenport & Atrium Plz NW,,41.2603879301877,-96.0891608777407,0,1
6264,2410,Davenport & 114th NE,,41.2603249304721,-96.0908192120171,0,1
8825,2411,114th & W Dodge SE,,41.262304743439,-96.090976058371,0,1
9598,3270,Westroads TC Bay 2,,41.268313256,-96.071450592,0,1
2916,2004,Mercy Rd & 68th NW,,41.237898,-96.018214,0,1
8727,2005,Mercy Rd & College of St. Marys NE,,41.2379093293157,-96.0207782017851,0,1
1692,2006,Mercy Rd & 72nd NE,,41.2379162680035,-96.0228054603368,0,1
2024,2263,72nd & Cedar SE,,41.2401626264618,-96.0239782916923,0,1
2023,2264,72nd & Hickory SE,,41.243217,-96.02397,0,1
8686,2929,Pine & 72nd SE,,41.24455,-96.02333,0,1
9647,2265,Pine & Aksarben Dr SW,,41.2437918836077,-96.019331007558,0,1
8688,2266,Pine & Scott Tech Center SE,,41.2437702613956,-96.0168544199555,0,1
8689,2267,67th & Pine NE,,41.2447935621522,-96.0146579572307,0,1
9466,2268,67th St & UNO Scott Campus MB,,41.246827,-96.01522,0,1
9268,2269,67th & Pacific SE,,41.2485459922125,-96.0156053968142,0,1
9269,2270,Pacific & 64th SW,,41.2487648045433,-96.0122222953147,0,1
9270,2271,Pacific & 62nd SW,,41.2487609157043,-96.0079284895886,0,1
9271,2272,60th & Pacific NE,,41.2490680797273,-96.0047643391511,0,1
8696,2273,60th & Mason NE,,41.250461,-96.00477,0,1
2953,2274,Leavenworth & 59th SW,,41.25233,-96.003831,0,1
8697,2275,Leavenworth & 57th SW,,41.2523481380353,-96.0018673037784,0,1
2964,2276,Leavenworth & 55th SW,,41.25236,-95.998142,0,1
8698,2277,Leavenworth & 52nd SW,,41.25237,-95.995338,0,1
2933,2278,Leavenworth & 51st SW,,41.25239,-95.992493,0,1
8699,2279,Leavenworth & 50th SW,,41.25239,-95.990376,0,1
2921,2280,Leavenworth & 49th SW,,41.2523999260816,-95.9882941923234,0,1
8700,2281,Leavenworth & Saddle Creek SW,,41.25244,-95.985692,0,1
8701,2282,Leavenworth & 46th SW,,41.2524127538644,-95.9831029084423,0,1
8702,2283,Leavenworth & 45th SE,,41.2524,-95.980295,0,1
8703,2284,Leavenworth & 43rd SW,,41.2524,-95.977531,0,1
3296,2930,Leavenworth & 42nd SW,,41.25241,-95.975955,0,1
1922,2285,Leavenworth & 40th SW,,41.2524,-95.974098,0,1
1940,2286,Leavenworth & 38th Ave SW,,41.2523828145303,-95.9708237359556,0,1
1936,2287,Leavenworth & 38th St SW,,41.25238,-95.969222,0,1
8704,2288,Leavenworth & 36th SW,,41.2523871716263,-95.9662774782007,0,1
1928,2289,Leavenworth & 35th SE,,41.2523866051097,-95.9627936934186,0,1
8705,2290,Leavenworth & 33rd SW,,41.25239,-95.961574,0,1
8706,2291,Leavenworth & 31st SE,,41.2523935752294,-95.9584220174312,0,1
9284,2998,Leavenworth & Park Ave SW,,41.25241,-95.956066,0,1
2031,2293,Leavenworth & 27th SE,,41.25242,-95.951389,0,1
2036,1816,Leavenworth & 25th SW,,41.25242,-95.949554,0,1
2639,2931,Leavenworth & 24th SW,,41.2524131491466,-95.9474367924671,0,1
2113,1818,Leavenworth & 22nd SE,,41.2524078787305,-95.9444584775099,0,1
2159,1819,Leavenworth & 20th SW,,41.2523920224696,-95.9424847188226,0,1
2140,1820,Leavenworth & 18th SW,,41.2524,-95.939658,0,1
2568,2932,16th & Leavenworth NE,,41.252632116034,-95.937205497928,0,1
3042,1822,16th & Jackson SE,,41.25428841748,-95.9371815928291,0,1
314,1824,16th & Farnam SE,,41.257469,-95.93718,0,1
558,3171,16th & Douglas SE,,41.258508,-95.93718,0,1
3025,1300,Douglas & 13th SW,,41.25864,-95.933433,0,1
4561,1227,11th & Dodge SE,,41.2594945577594,-95.9304928825219,0,1
7322,2869,30th & Drexel SE,,41.1926214250543,-95.9576427650526,0,1
7293,2870,30th & Madison SE,,41.194467,-95.95764,0,1
9200,2871,30th & Y St  SE,,41.1973676431362,-95.957657017723,0,1
2762,2872,30th & W St SE,,41.1996412715057,-95.9577108731254,0,1
2772,2873,30th & U Plz SE,,41.201534,-95.95774,0,1
2781,2874,30th & S St SE,,41.203334,-95.95774,0,1
2112,2875,30th & Q St SE,,41.2053245391508,-95.9577579282611,0,1
9616,3278,Metro College TC Bay 6,,41.206424,-95.9561159999999,0,1
8027,2876,24th & Q St NE,,41.205943,-95.94706,0,1
7863,2877,24th & P St SE,,41.206796,-95.94705,0,1
7829,2878,24th & O St SE,,41.208116966307,-95.9470586832108,0,1
7837,2879,24th & N St SE,,41.209548,-95.94706,0,1
2302,2880,24th & M St SE,,41.210918,-95.94706,0,1
9179,3067,24th & L St SE,,41.212069,-95.94705,0,1
2802,2881,24th & J St SE,,41.21456,-95.94705,0,1
2797,2882,24th & H St SE,,41.2171693147102,-95.9470410800437,0,1
2751,2883,24th & F St SE,,41.219578,-95.94703,0,1
2363,1276,24th & D St SE,,41.222022,-95.94703,0,1
2650,1285,24th & B St SE,,41.224464619756,-95.9470391501593,0,1
2848,1383,24th & Deer Park Blvd SE,,41.2280319455244,-95.9470088715953,0,1
8610,3066,24th at Vinton NE,,41.229709,-95.94705,0,1
2850,1374,24th & Oak SE,,41.231745,-95.94705,0,1
2841,1363,24th & Bancroft SE,,41.2341497871112,-95.9470408147389,0,1
9256,1347,24th & Martha SE,,41.2380481780465,-95.9470350535869,0,1
9180,1341,24th & Hickory  NE,,41.2442338657556,-95.9470045916524,0,1
2660,1336,24th & Poppleton Ave SE,,41.2468618632165,-95.9470181127542,0,1
2653,1337,24th & Pacific SE,,41.2483816499243,-95.9470249779201,0,1
2641,1331,24th & Mason SE,,41.2504786044574,-95.9470910585438,0,1
2247,3065,24th & Leavenworth NE,,41.252732,-95.94704,0,1
9653,1272,24th & St Marys Ave NE,,41.2541986553942,-95.9469626787581,0,1
9257,1222,24th & Howard SE,,41.255360752908,-95.9469317035299,0,1
188,1242,24th & Harney SE,,41.256448,-95.94693,0,1
373,1223,24th & Farnam SE,,41.257493,-95.94693,0,1
5381,1257,24th & Douglas SE,,41.2585609811317,-95.9468825660378,0,1
7377,3064,24th St & Dodge St,,41.2602653405775,-95.9468746737572,0,1
3673,1236,24th & Chicago SE,,41.262523,-95.9469,0,1
5303,1273,24th & California SE,,41.2646318454936,-95.946924248927,0,1
8842,3063,24th & Cuming SE,,41.2677631561764,-95.9470280701586,0,1
4430,1264,24th St & Metro Entrance SE,,41.268607,-95.94703,0,1
4418,1694,24th & Caldwell SE,,41.271026,-95.94703,0,1
3734,1261,24th & Paul NE,,41.272705,-95.94703,0,1
5369,1693,24th & Clark SE,,41.275083,-95.94704,0,1
3748,2125,24th & Blondo NE,,41.2776339839402,-95.947042461362,0,1
5370,1318,24th & Burdette SE,,41.278738,-95.94705,0,1
5366,1301,24th & Grant NE,,41.280201,-95.94704,0,1
3758,1268,24th & Lake SE,,41.281340085583,-95.9470330493969,0,1
5343,1290,24th & Miami SE,,41.2831642637921,-95.9470220603811,0,1
9377,1287,24th & Locust SE,,41.28499,-95.94702,0,1
3723,1286,24th & Binney SE,,41.2859282483223,-95.947011094104,0,1
3743,1225,24th & Spencer SE,,41.2876863871643,-95.9470028416744,0,1
6364,1241,24th & Bristol SE,,41.28917,-95.94699,0,1
3751,1315,24th & Pinkney NE,,41.290855,-95.94699,0,1
4384,1309,24th & Pratt SE,,41.29224,-95.94698,0,1
4408,1190,24th & Laird SE,,41.2940843474971,-95.9469705370883,0,1
3761,3062,24th & Sprague SE,,41.2958813961213,-95.9469705013491,0,1
1637,1191,24th & Sahler NE,,41.2974047278494,-95.9469776397064,0,1
9654,1163,24th & Ames SE,,41.2991878780185,-95.9469590228976,0,1
9607,3258,North Omaha TC Bay 10,,41.2980649419216,-95.957495252934,0,1
9449,1865,40th & Fowler Ave SE,,41.301332972911,-95.9721498490107,0,1
4179,1866,40th & Grand Ave SE,,41.3030644957998,-95.9721693692704,0,1
4167,1867,41st & Grand Ave NE,,41.30312,-95.973782,0,1
9663,3041,42nd & Grand Ave NW,,41.30313,-95.976412,0,1
4159,1869,Fontenelle Blvd & Grand Ave NE,,41.30313,-95.977867,0,1
850,1870,Fontenelle Blvd & Browne SE,,41.304847,-95.97804,0,1
9218,1872,Fontenelle & Fort SE,,41.306622743468,-95.9776434394299,0,1
5625,1873,42nd & Fontenelle Blvd NE,,41.3080301471146,-95.9757740353476,0,1
5930,3040,42nd & Redman Ave NW,,41.3095564957785,-95.9761741293702,0,1
9450,1875,44th & Redman Ave NW,,41.3104018819599,-95.978911091314,0,1
9057,1876,Redman Ave & Brickstone Appts. NE,,41.3108074697455,-95.980608355975,0,1
9451,1877,46th & Redman Ave NE,,41.3106174630137,-95.9828095013699,0,1
9059,1878,Redman Ave & Sorensen Care Center NE,,41.3103359584321,-95.9857730253418,0,1
9060,1879,49th & Hartman Ave NW,,41.3103546206764,-95.9887556544966,0,1
9061,1880,50th Ave & Hartman Ave NE,,41.3103711431953,-95.9915715763314,0,1
9052,1881,52nd & Hartman Ave NE,,41.3103508135218,-95.9948484472041,0,1
4014,1882,52nd & Laurel Ave SE,,41.312152513774,-95.9949802313964,0,1
4002,1883,52nd & Kansas Ave SE,,41.313872,-95.99498,0,1
1587,1884,56th & Northampton Blvd NW,,41.31551,-96.00013,0,1
7340,1885,Crown Tower & Henninger Dr NE,,41.3149558643533,-96.0022725362776,0,1
9452,1886,60th Plz North & 60th (Kansas) NE,,41.314075487526,-96.0044698866944,0,1
9240,2139,Ville de Sante & Laurel Ave NE,,41.31194,-96.005549,0,1
1809,1888,Ville de Sante & Stone Plz NE,,41.3129181697172,-96.0059312146423,0,1
9453,1889,Ville de Sante Dr NE,,41.3134385328836,-96.0080629679595,0,1
8900,1891,61st & Ville de Sante NW,,41.3117430442478,-96.0085063362832,0,1
9455,1892,Ville de Sante & Hartman Ave NW,,41.3112215172414,-96.0073537931034,0,1
8917,3290,60th & Hartman Ave SW,,41.31031946262,-96.0061237853184,0,1
1021,2140,60th & Ogden NW,,41.3081824982091,-96.0046388281437,0,1
7379,1894,60th & Park Lane Dr NW,,41.306329,-96.00465,0,1
3964,1895,60th & Browne NW,,41.3050511138736,-96.0046585901734,0,1
5691,1896,60th & Grand Ave NW,,41.30332288922,-96.0046687273813,0,1
3961,1897,60th & Fowler Ave NW,,41.3014555146983,-96.0046791312028,0,1
8902,3039,60th & Ames Ave NW,,41.299682,-96.00468,0,1
7039,1899,60th & Taylor NW,,41.298282,-96.0047,0,1
3936,1900,60th & Sprague NW,,41.2960297538084,-96.004718840298,0,1
3932,1901,60th & Spaulding NW,,41.294147,-96.00473,0,1
3928,1902,60th & Pratt NW,,41.2923765058113,-96.0047390056803,0,1
7717,1903,60th & Birch NW,,41.2907525871033,-96.0047487486802,0,1
8903,1904,60th & Catholic Charities NW,,41.2886373495166,-96.0047627573919,0,1
5469,3038,60th & NW Radial Hwy NW,,41.287702333962,-96.0047746811321,0,1
9664,3037,60th & Maple NW,,41.285136,-96.00477,0,1
2497,1907,60th & Miami NW,,41.283274,-96.00479,0,1
3083,1908,60th & Lake NW,,41.2814563863958,-96.0047987742088,0,1
2473,1909,60th & Grant NW,,41.279656,-96.00481,0,1
2477,1910,60th & Blondo NW,,41.277918,-96.00481,0,1
3088,1911,61st & Blondo NE,,41.27775,-96.007024,0,1
2532,1912,63rd & Blondo NE,,41.27776,-96.009412,0,1
9456,1913,65th & Blondo NE,,41.2777686651208,-96.0118945677325,0,1
2442,1914,66th & Blondo NE,,41.2777625083773,-96.0141744470966,0,1
2441,1915,67th Ave & Blondo NE,,41.27777,-96.016613,0,1
2432,1916,69th & Blondo NE,,41.2777872031166,-96.0189593901128,0,1
2410,1917,70th Ave & Blondo NE,,41.27778,-96.02136,0,1
9675,3173,Blondo &72nd NW,,41.2778008301859,-96.0245580752416,0,1
2377,1920,Blondo & 74th NW,,41.277835746676,-96.0277517984647,0,1
2226,1921,Blondo & Davis Cir NE,,41.277827716763,-96.0304373410405,0,1
729,1151,Blondo & 78th NW,,41.2778139289678,-96.0337221309656,0,1
699,1922,Blondo &  Cole Creek Dr NE,,41.2778016189524,-96.035360947621,0,1
656,1923,Blondo & Benson Gardens Blvd NE,,41.2778,-96.037293,0,1
621,1924,Blondo & Robertson Dr NW,,41.277810563591,-96.0392612718204,0,1
718,1925,Blondo & 83rd NE,,41.27781,-96.042033,0,1
831,1926,Blondo & Keystone Dr NW,,41.2778675979382,-96.0449971546392,0,1
858,1927,85th & Blondo SW,,41.27745,-96.04746,0,1
7455,1928,85th & Decatur NW,,41.276162900123,-96.0470953789285,0,1
1337,1929,85th & Seward NW,,41.2744966467576,-96.0465497525597,0,1
7349,1930,85th & Hamilton NW,,41.2725331640756,-96.0459293528688,0,1
8905,1931,85th & Western Ave NW,,41.2707698190727,-96.0453585457324,0,1
7348,1932,85th & Izard NW,,41.2688989999999,-96.044743,0,1
4762,1933,85th & Burt NW,,41.267127680349,-96.0441704747791,0,1
5681,1934,85th & Underwood Ave NW,,41.265345780114,-96.0436027513701,0,1
7678,1935,84th & Cass SE,,41.263343367913,-96.041976465654,0,1
133,1936,78th & Cass (Old Chicago) SW,,41.2633373318691,-96.0378641229984,0,1
9461,1937,78th & Cass SE,,41.2633072030369,-96.03573574577,0,1
7675,1938,77th Ave & Cass SW,,41.26329,-96.034058,0,1
2066,1939,76th & Cass SE,,41.26329,-96.030282,0,1
2125,1940,74th Ave & Cass SW,,41.26329,-96.028297,0,1
2300,1941,73rd & Cass SE,,41.2633,-96.02565,0,1
5821,1446,31st & Ferry SE,,41.345776,-95.963828,0,1
4411,1447,30th & McKinley NW,,41.3433374171598,-95.9640507011834,0,1
6785,1448,30th & Bondesson NW,,41.3401300000001,-95.96147,0,1
6783,1449,30th & Clay NW,,41.3392640041493,-95.9612317344398,0,1
6773,1450,30th & Tucker NW,,41.338332734806,-95.9609667628753,0,1
998,1451,30th & State NW,,41.3364717431193,-95.9604395229358,0,1
946,1452,30th & Grebe NW,,41.3345042191779,-95.9598959178082,0,1
5484,1453,30th & Young NW,,41.3335810829016,-95.9596402849741,0,1
6804,1454,30th & King SW,,41.3313404705882,-95.959015117647,0,1
6803,1455,30th & Craig NW,,41.3299566353166,-95.9586187005758,0,1
7281,1456,30th & Potter NW,,41.3289376452489,-95.9583371502262,0,1
9379,1457,30th & Weber SW,,41.3264085742574,-95.9576307425742,0,1
9649,2970,30th & Martin NW,,41.3246180331491,-95.9571346298342,0,1
6798,1460,30th & Vane NW,,41.3230769935673,-95.9566957728359,0,1
2387,1461,30th & Whitmore NW,,41.3223233241379,-95.9565511103448,0,1
6765,1462,30th & Newport NW,,41.3195983384612,-95.9565452923077,0,1
6793,1463,30th & Redick NW,,41.317737,-95.95655,0,1
6762,1464,30th & Curtis NW,,41.315938808897,-95.9565584804938,0,1
6792,1465,30th & Stone NW,,41.313707,-95.95656,0,1
6758,1466,30th & Laurel NW,,41.312273,-95.95655,0,1
6790,1467,30th & Ellison NW,,41.309975,-95.95656,0,1
6755,1468,30th & Fort NW,,41.306843,-95.95657,0,1
9610,3261,North Omaha TC Bay 13,,41.2980559510824,-95.9581740343618,0,1
6750,1473,30th & Sprague NW,,41.29569,-95.95657,0,1
2155,1474,30th & Spaulding NW,,41.2942756614229,-95.9565778351429,0,1
2137,1475,30th & Pratt NW,,41.292428,-95.95656,0,1
2121,1476,30th & Pinkney NW,,41.290615,-95.95658,0,1
6741,1478,30th & Spencer SW,,41.287587,-95.95658,0,1
2101,1479,30th & Binney NW,,41.286275,-95.95658,0,1
2260,1480,30th & Miami NW,,41.2832291989671,-95.9565627059583,0,1
6734,1481,30th & Lake SW,,41.281132,-95.95657,0,1
7180,1482,30th & Grant NW,,41.2801104223627,-95.9565775653948,0,1
9381,1483,30th & Patrick SW,,41.278084,-95.9566,0,1
9382,1484,30th & Decatur NW,,41.2756724777882,-95.9565924995064,0,1
3153,1485,30th & Seward NW,,41.2740522295699,-95.9566125602268,0,1
3120,1486,30th & Hamilton NW,,41.27208,-95.95662,0,1
6722,1487,30th & Myrtle NW,,41.2706233301988,-95.9566218578721,0,1
9650,2971,30th & Cuming NW,,41.2682102183373,-95.9566479836718,0,1
3140,1617,30th & Burt NW,,41.2671628756902,-95.9566856381216,0,1
5246,1618,30th & Webster Plz NW,,41.2659716037733,-95.9567268867924,0,1
5330,1619,30th & California SW,,41.264534,-95.95674,0,1
1787,1620,30th & Chicago NW,,41.262756,-95.95674,0,1
1778,2972,Lincoln Blvd & Dodge NW,,41.2600031421448,-95.9573901571072,0,1
9668,3287,Turner Blvd & Douglas SW,,41.2588101850661,-95.9573402230667,0,1
7221,2112,Harney & Park Ave SE,,41.25876,-95.95584,0,1
163,2554,Harney & 27th Ave SW,,41.25876,-95.952454,0,1
175,2556,Harney & 25th SW,,41.2566619361085,-95.9476676815102,0,1
180,3178,Harney & 24th SW,,41.2565884470919,-95.9470433622889,0,1
9725,6015,12th & Dodge ORBT Station NW,,41.25968,-95.932371,0,1
9726,6016,15th & Dodge ORBT Station NW,,41.25966,-95.936541,0,1
9727,6017,20th & Dodge ORBT Station NE,,41.2597578675479,-95.9421177083939,0,1
9728,6018,24th & Dodge ORBT Station NW,,41.2597761868813,-95.9474986881312,0,1
9729,6019,Park Ave & Dodge ORBT Stop NE,,41.2597333670979,-95.9556445057359,0,1
9730,6020,33rd & Dodge ORBT Station NW,,41.25976,-95.962012,0,1
9731,6021,42nd & Dodge ORBT Station NE,,41.25965,-95.975479,0,1
9732,6022,49th & Dodge ORBT Station NE,,41.2597,-95.9876,0,1
9733,6023,62nd & Dodge ORBT Station NW,,41.25961,-96.007978,0,1
9734,6024,72nd & Dodge ORBT Station NW,,41.2596271839479,-96.0245042921165,0,1
9735,6025,Keystone Trail & Dodge ORBT Stop NE,,41.25969,-96.033314,0,1
9736,6026,84th & Dodge ORBT Station NW,,41.2621820277228,-96.0439003227723,0,1
9737,6027,90th & Dodge ORBT Station NW,,41.26344,-96.053153,0,1
9614,3276,Metro College TC Bay 3,,41.206434,-95.955472,0,1
8496,1376,Babe Gomez Ave & B. Gomez Cir NW,,41.2101800182055,-95.9597808712614,0,1
8198,1377,Babe Gomez Ave & 33rd NE,,41.2106855055762,-95.9624555427509,0,1
2692,1378,33rd & L St SE,,41.2117737652812,-95.9625844352078,0,1
2892,1380,L St & 36th NE,,41.212265880427,-95.9668516626336,0,1
5854,1381,L St & 39th NE,,41.2126130978957,-95.9709561152789,0,1
8498,1382,L St & 40th NE,,41.21261,-95.973079,0,1
8499,3142,42nd & K St SE,,41.21343790938,-95.9763073672496,0,1
6889,1384,42nd & I St SE,,41.2154392385787,-95.9761993401015,0,1
8500,1385,42nd & Hillsdale SE,,41.2164990196406,-95.9761300710405,0,1
8501,1386,42nd & Dayton SE,,41.2178397781025,-95.9760154102189,0,1
8220,1387,42nd & F St SE,,41.2195922995643,-95.9758703275327,0,1
2714,1388,42nd & D St SE,,41.221610369023,-95.9758464397089,0,1
8069,1389,42nd & Grover SE,,41.2268644155274,-95.9758526073937,0,1
5552,1390,42nd & Valley SE,,41.2279304840231,-95.9758421145422,0,1
5564,1391,42nd & Vinton NE,,41.229457,-95.97584,0,1
3257,1392,42nd & Frederick SE,,41.2317105632082,-95.9758489106501,0,1
8502,1393,42nd & Bancroft SE,,41.234154,-95.97584,0,1
3256,1394,42nd & Arbor NE,,41.235904,-95.97583,0,1
3267,1395,42nd & Marinda SE,,41.2382862261056,-95.9758209764518,0,1
3262,1396,42nd & Frances SE,,41.239885,-95.97582,0,1
8070,3141,42nd & Center SE,,41.2412974474601,-95.9758366778209,0,1
5036,3140,42nd & Shirley SE,,41.2421670423778,-95.9758225467842,0,1
5945,1399,42nd & Hickory SE,,41.243657,-95.97581,0,1
9415,3145,Woolworth & 42nd SE,,41.24514,-95.97581,0,1
9414,1400,V.A. Medical Center,,41.2436589916067,-95.9742596412514,0,1
8503,1401,42nd & William NE,,41.246142,-95.9758,0,1
1151,1403,42nd & Pacific SE,,41.2486999927723,-95.9757993180176,0,1
203,1404,42nd & Marcy SE,,41.250932,-95.97579,0,1
8071,3147,42nd & Leavenworth NE,,41.2533368537961,-95.9757679822126,0,1
8099,2997,42nd & Emile NE,,41.254558,-95.97575,0,1
138,1407,42nd & Dewey SE,,41.2558383518099,-95.975748206985,0,1
7319,1408,Harney & 41st SW,,41.25722,-95.974794,0,1
6686,3149,40th & Farnam NE,,41.2582002213653,-95.9733562695309,0,1
5756,3150,40th & Dodge SE,,41.2595049775014,-95.9733146283776,0,1
3452,1411,40th & Davenport SE,,41.261047,-95.97331,0,1
3466,1412,40th & California SE,,41.2646623381734,-95.9729210973239,0,1
3472,1413,40th & Burt SE,,41.2668043886324,-95.9729286252478,0,1
8074,3152,40th & Cuming SE,,41.26781,-95.97293,0,1
3479,1415,40th & Nicholas SE,,41.2699357869224,-95.9729209222396,0,1
3509,2492,40th & Hamilton SE,,41.2714668415224,-95.9729179778547,0,1
3508,1416,Hamilton & 41st Ave NE,,41.2721583323424,-95.9748116260404,0,1
3504,1417,Hamilton & Military Ave NE,,41.2721634356692,-95.9770372955198,0,1
3506,1418,Military Ave & Seward SE,,41.2740035345319,-95.9779207144451,0,1
3216,1419,Military Ave & Decatur SE,,41.2760144894905,-95.978910081491,0,1
2417,1420,Military Ave & Patrick Ave MB,,41.2777346159529,-95.9796774558763,0,1
8221,1421,45th & Grant/Military Ave NE,,41.280115,-95.98053,0,1
8222,1422,45th & Lake SE,,41.281304,-95.98053,0,1
3225,1423,45th & Miami SE,,41.28306,-95.98053,0,1
3212,1424,45th & Binney SE,,41.285267,-95.98055,0,1
3235,1425,45th & Wirt SE,,41.286761,-95.98055,0,1
8076,3154,45th & Bedford SE,,41.288514,-95.98055,0,1
8505,1427,Bedford & 43rd SW,,41.2886807074708,-95.9777438073859,0,1
4144,3073,Bedford & 42nd SW,,41.28868,-95.975972,0,1
4147,1429,42nd & Pinkney SE,,41.2904143026462,-95.9757493670755,0,1
4149,1430,42nd & Pratt SE,,41.292261,-95.97574,0,1
8506,1431,42nd & Spaulding SE,,41.2940434045636,-95.9757971608054,0,1
8223,1432,42nd & Sprague SE,,41.2958478515461,-95.9757737340206,0,1
4156,1433,42nd & Paxton Bd NE,,41.2978982420382,-95.9757975811835,0,1
8077,3036,42nd & Ames SE,,41.2989026734258,-95.9757751357894,0,1
9378,1444,30th & Taylor NW,,41.2990421649483,-95.956547628866,0,1
9602,3253,North Omaha TC Bay 3,,41.297876,-95.958155,0,1
357,1974,Farnam & 20th NW,,41.2575720856629,-95.9429627186549,0,1
2627,2933,Farnam & 24th NW,,41.2575860925212,-95.9471493307632,0,1
380,1976,Farnam & 25th NW,,41.25761,-95.94848,0,1
401,1977,Farnam & 26th Ave NE,,41.25761,-95.950629,0,1
7215,1978,Farnam & 28th NE,,41.25762,-95.953039,0,1
6697,2994,Farnam & 30th NE,,41.2576772454764,-95.956551196317,0,1
6696,1980,Farnam & 31st Ave NE,,41.2577066651246,-95.9589532516014,0,1
181,1981,Farnam & 33rd NE,,41.25771,-95.961384,0,1
170,1982,Farnam & 34th NE,,41.25771,-95.962737,0,1
165,1983,Farnam & 35th Ave NW,,41.25774,-95.965709,0,1
149,1984,Farnam & 38th NE,,41.2577516282391,-95.9688960232606,0,1
87,2995,Farnam & 40th NW,,41.25777,-95.973669,0,1
8492,1338,42nd & Harney NW,,41.257414,-95.97575,0,1
140,1339,42nd & Dewey NW,,41.256193,-95.97575,0,1
104,1340,42nd & Emile NW,,41.254353,-95.97575,0,1
1989,3146,42nd & Leavenworth SW,,41.252001,-95.97579,0,1
8130,1342,42nd & Mayberry NW,,41.251049,-95.97579,0,1
111,1344,42nd & Pacific SW,,41.2485778058854,-95.9757965410429,0,1
9253,1345,42nd & Popleton SW,,41.246714,-95.9758,0,1
9419,3144,42nd & Woolworth SW,,41.244732,-95.97581,0,1
201,1349,42nd & Walnut NW,,41.243093,-95.97581,0,1
3264,3143,42nd & Center NW,,41.2418245870977,-95.9758319291206,0,1
211,1986,Center & 44th NW,,41.24154,-95.978331,0,1
6894,1987,Center & 45th NE,,41.24154,-95.980253,0,1
1339,1988,Center & 47th NE,,41.24155,-95.984065,0,1
1998,1989,Center & 48th NW,,41.24155,-95.985895,0,1
1345,1990,Center & 49th NE,,41.24155,-95.987722,0,1
1145,1991,Center & 50th NE,,41.2415297525773,-95.990015443299,0,1
1159,1992,Center & 51st NE,,41.2413465579399,-95.9921616566524,0,1
1355,1993,Center & 51st Ave NW,,41.2411098360656,-95.9942531967213,0,1
1211,1994,Center & 55th NE,,41.239095732,-95.997827276,0,1
1220,1995,Center & 56th NE,,41.2379430742358,-95.9997819432314,0,1
1891,1996,Center & 58th NE,,41.23786,-96.002621,0,1
7419,1997,Center & 60th NE,,41.23787,-96.004522,0,1
1229,1998,Center & 61st Ave NE,,41.2378910282688,-96.0070096925493,0,1
1915,1999,Center & 63rd NE,,41.23789,-96.00934,0,1
1333,2000,Center & 64th Ave NE,,41.2378813815153,-96.0118557275658,0,1
8725,2001,Center & 67th NE,,41.2378800322027,-96.0137676908544,0,1
8726,2002,Mercy Rd & 67th NW,,41.2387953176345,-96.0148853912229,0,1
8678,2010,Mercy Rd & 75th NE,,41.2378541733414,-96.0283230992138,0,1
8679,2011,Mercy Rd Entrance NE,,41.23785,-96.031648,0,1
1913,2012,78th & W Center NW,,41.2344746891931,-96.0335224051642,0,1
1238,2013,W Center & 80th NE,,41.2343305581869,-96.0362958930551,0,1
1234,2711,W Center & 80th Ave NE,,41.23434,-96.038534,0,1
1400,2996,W Center & 84th NE,,41.23434,-96.042893,0,1
8561,2015,W Center & Canfield Plz NW,,41.23433,-96.046244,0,1
6630,2016,W Center & 87th NE,,41.23433,-96.048389,0,1
530,2017,W Center & 88th NW,,41.2343135758853,-96.0514446568297,0,1
3484,2018,W Center & 90th NW,,41.234220832,-96.054250424,0,1
8728,2019,W Center & Big Papio Trail NW,,41.2338662828393,-96.0563887427457,0,1
8729,2020,W Center & Paddock NE,,41.2336206595132,-96.0578619769694,0,1
6626,2021,W Center & 96th NE,,41.2337777480397,-96.0618453957135,0,1
6625,2022,W Center & 97th Ave NE,,41.2341703740831,-96.0640824938875,0,1
462,2023,W Center & 99th Ave NE,,41.234315773264,-96.0673055701464,0,1
457,2024,W Center & 100th NW,,41.23429,-96.070034,0,1
454,2025,W Center & 102nd NE,,41.2343,-96.072142,0,1
3414,2026,W Center & 105th NE,,41.2343,-96.074367,0,1
6647,2027,W Center & 105th Ave NE,,41.2342885056243,-96.0773441136079,0,1
523,2028,W Center & 107th NW,,41.23427,-96.079439,0,1
519,2029,W Center & 108th NE,,41.2342763846684,-96.0812113881111,0,1
361,3098,W Center & 114th NW,,41.2341755372598,-96.0916667680098,0,1
508,2031,W Center & Westwood Ln NW,,41.2341572878696,-96.0932796825662,0,1
410,2032,W Center & 117th NE,,41.2341344630665,-96.0956486592093,0,1
6616,2033,W Center & 119th NE,,41.234112368503,-96.0981456504806,0,1
325,2034,W Center & 120th NW,,41.2341,-96.101298,0,1
8730,2035,W Center & 122nd Ave NE,,41.2341012484076,-96.104244955414,0,1
433,2036,W Center & 124th NE,,41.2341,-96.107163,0,1
430,2037,W Center & 129th Ave NE,,41.2341039725954,-96.1143376716819,0,1
356,2039,W Center & 132nd NW,,41.2341452902927,-96.1204446469966,0,1
399,2040,W Center & 135th Ave NE,,41.2340840487985,-96.1243294624769,0,1
377,2041,W Center & 138th NW,,41.2340553384679,-96.1280084150708,0,1
351,2042,143rd Plz & OakView Dr NW,,41.2329539259797,-96.1338188563135,0,1
7023,2043,Oakview Park & Ride NW,,41.23181776,-96.13630032,0,1
317,2044,Oak View Mall,,41.229978,-96.135684,0,1
390,3285,Park Ave & Farnam NE,,41.2581071219752,-95.9558578057643,0,1
9672,3286,Park Ave & Dodge SE,,41.2596418003823,-95.9558581814512,0,1
7760,3097,Dodge & 30th NE,,41.2603577796381,-95.9565566429864,0,1
5973,1625,30th & Chicago SE,,41.262436,-95.95653,0,1
6718,1627,30th & Webster Plz SE,,41.2656345425612,-95.956525382699,0,1
3125,2968,30th & Cuming NE,,41.2683965209387,-95.9565151035435,0,1
3118,1629,30th & Myrtle SE,,41.2704863485897,-95.9566202815644,0,1
2358,1630,30th & Hamilton SE,,41.271555,-95.95662,0,1
9384,1631,30th & Seward SE,,41.273122,-95.95662,0,1
9383,1633,30th & Decatur SE,,41.275482,-95.95659,0,1
6731,1634,30th & Patrick NE,,41.2786099360637,-95.9565964375165,0,1
6733,1635,30th & Grant SE,,41.279897,-95.95658,0,1
3435,1636,30th & Lake SE,,41.281348,-95.95657,0,1
6736,1637,30th & Miami SE,,41.2831824215282,-95.9565640779792,0,1
6739,1638,30th & Binney SE,,41.285875,-95.95658,0,1
2091,1639,30th & Spencer SE,,41.287721,-95.95658,0,1
6744,1641,30th & Pinkney SE,,41.2904488731074,-95.9565789004969,0,1
6746,1642,30th & Pratt SE,,41.2922530488568,-95.956561514553,0,1
6748,1643,30th & Spaulding NE,,41.2943158569688,-95.9565774120319,0,1
9651,1644,30th & Sprague SE,,41.295843,-95.95657,0,1
9601,3252,North Omaha TC Bay 2,,41.2978439014316,-95.9583493502364,0,1
4351,1645,30th & Meredith NE,,41.3007177106938,-95.9565328803569,0,1
4358,1646,30th & Larimore NE,,41.302608,-95.95654,0,1
2175,1647,30th & Fort NE,,41.306945,-95.95657,0,1
9385,1648,30th & Ellison NE,,41.309852,-95.95656,0,1
2197,1649,30th & Laurel SE,,41.3120323212952,-95.9565503425337,0,1
2208,1650,30th & Kansas SE,,41.313835,-95.95656,0,1
2217,1651,30th & Curtis NE,,41.3158673748367,-95.9565589765636,0,1
2221,1652,30th & Redick SE,,41.317349,-95.95655,0,1
6795,1653,30th & Newport SE,,41.319042,-95.95655,0,1
2392,1654,30th & Ida NE,,41.321726,-95.95654,0,1
2382,1655,30th & Vane SE,,41.3228273827533,-95.9566305718608,0,1
8843,2969,30th & Martin SE,,41.3242602101728,-95.957033609405,0,1
3430,1657,30th & Scott SE,,41.3263094564699,-95.9576021509048,0,1
9387,1659,30th & Potter SE,,41.3286732585635,-95.9582633127072,0,1
9388,1660,30th & King SE,,41.3312464235669,-95.9589883598726,0,1
5804,1661,30th & Young SE,,41.3333534043998,-95.959579720337,0,1
5899,1662,30th & Grebe SE,,41.3342483773585,-95.9598266792453,0,1
6805,1663,30th & State SE,,41.3360890265532,-95.9603270917572,0,1
6782,1664,30th & Tucker SE,,41.3379396846154,-95.9608608230769,0,1
5817,1665,30th & Clay SE,,41.3388009676592,-95.9611013125458,0,1
6775,1666,30th & Bondesson NE,,41.3404830072993,-95.961584729927,0,1
5818,1667,30th Ave & McKinley SE,,41.3428725476673,-95.9635573955375,0,1
8760,2003,Mercy Rd & 67th SW,,41.2388014701632,-96.0148627037731,0,1
1921,2089,Center & 64th Ave SW,,41.23785,-96.01224,0,1
1912,2090,Center & 63rd SW,,41.23789,-96.009768,0,1
1233,2091,Center & 61st Ave SW,,41.23789,-96.007257,0,1
1224,2092,Center & 60th SW,,41.2378763252575,-96.0050124981866,0,1
6120,2093,Center & 58th SW,,41.2378612565292,-96.0028304178668,0,1
1889,2094,Center & 56th SW,,41.2379210940828,-96.0000017142011,0,1
9367,2095,Center & 55th SW,,41.2386719114967,-95.9984605518438,0,1
1877,2096,Center & 52nd SE,,41.2410552846154,-95.9944706230769,0,1
6071,2097,Center & 51st (Saddle Creek) SE,,41.2413162145923,-95.9924929012876,0,1
1149,2098,Center & 50th SW,,41.2414992982683,-95.9904867014733,0,1
273,2099,Center & 49th SW,,41.24155,-95.987989,0,1
1341,2100,Center & 48th SW,,41.24155,-95.985636,0,1
246,2101,Center & 47th SW,,41.24155,-95.984414,0,1
6382,2102,Center & 45th SW,,41.24154,-95.980779,0,1
1239,2103,Center & 44th SW,,41.24154,-95.97837,0,1
4322,3172,42nd & Farnam SE,,41.2577884993145,-95.9756892222392,0,1
9230,3183,Farnam & 40th SW,,41.25777,-95.973552,0,1
9231,2106,Farnam & 38th SE,,41.25775,-95.969193,0,1
99,2107,Farnam & 36th SW,,41.2577458789809,-95.966304611465,0,1
8242,2108,Farnam & 34th SW,,41.2577211659298,-95.9636122876463,0,1
8762,2109,Farnam & 33rd SW,,41.25771,-95.961767,0,1
8243,2110,Farnam & 32nd Ave SW,,41.25771,-95.960109,0,1
152,2111,Farnam & Turner Blvd SW,,41.2576702835052,-95.9580187371134,0,1
4669,3203,17th at Dodge NW,,41.2598737451226,-95.9384319975012,0,1
1619,1780,16th & Howard NW,,41.255637,-95.93718,0,1
9519,1781,16th & Jackson NW,,41.254591,-95.93718,0,1
3145,2962,16th & Leavenworth NW,,41.2525552655406,-95.9372068702582,0,1
2832,1783,16th & Pierce SW,,41.2475766392736,-95.9372676348504,0,1
2748,1784,16th & William NW,,41.2457976988298,-95.9372963274382,0,1
9520,1785,16th & Pine NW,,41.244461,-95.9373,0,1
2767,1786,16th & Center NW,,41.24154,-95.93732,0,1
9521,1787,16th & Dorcas SW,,41.23934,-95.93734,0,1
2779,1788,16th & Martha NW,,41.23836,-95.93734,0,1
2862,1789,16th & Castelar SW,,41.2368518244939,-95.9373214695918,0,1
2544,1790,16th & Vinton NW,,41.2345621605127,-95.9373596306581,0,1
3171,1791,Vinton & 18th NE,,41.2336511052072,-95.939415794899,0,1
2584,1792,Vinton & 19th NW,,41.2321868,-95.9410756,0,1
2592,1793,Vinton & 20th NE,,41.2309850482759,-95.9420221793104,0,1
2597,1794,Vinton & 21st NE,,41.2293731676301,-95.9440005895954,0,1
2646,1795,Vinton & 23rd St NE,,41.2293870311815,-95.9454757004888,0,1
9644,2963,Vinton & 24th NE,,41.2294342458599,-95.9468888840764,0,1
9261,1797,Vinton & 25th NE,,41.2294549140694,-95.9477136760884,0,1
9262,1798,Vinton & Hanscom Blvd NE,,41.2294808078752,-95.9575808129632,0,1
3270,1799,Vinton & 32nd Ave NE,,41.229522,-95.960236,0,1
3427,1777,Sprague & J. Creighton Blvd NE,,41.2958808315364,-95.9588237358551,0,1
3921,2200,Paxton Blvd & 31st Ave NW,,41.2970307269155,-95.9596651984283,0,1
4290,2201,Paxton Blvd & 33rd NW,,41.29709,-95.96164,0,1
4200,2202,Paxton Blvd & 34th Ave,,41.2965197746854,-95.9636063368872,0,1
8885,2203,Paxton Blvd & 36th St NE,,41.2961,-95.966018,0,1
4155,2208,Pratt & 39th NE,,41.2922688550653,-95.9708818763855,0,1
4154,2209,Pratt & 40th St NE,,41.29227,-95.972052,0,1
9105,2210,40th & Pinkney NW,,41.2905799880364,-95.9721172582575,0,1
9106,3137,40th & Bedford Ave NW,,41.2887507134728,-95.9721390722589,0,1
3537,2212,40th & Wirt NW,,41.286494,-95.97229,0,1
3531,2213,40th & Maple NW,,41.2848878580517,-95.9722812202507,0,1
3525,2214,40th & Miami NW,,41.283229568744,-95.9722879119914,0,1
8888,2215,40th & Lake NW,,41.281563,-95.97227,0,1
3516,2216,Lake & Grant SW,,41.2813923704989,-95.9707162160521,0,1
405,2217,Lake & 37th SW,,41.2813912475539,-95.9684419667544,0,1
3552,2218,Lake & 36th SW,,41.28139,-95.96622,0,1
8889,2219,Lake & 35th SW,,41.2814081821368,-95.9649802930469,0,1
3555,2220,Lake & 34th Ave SE,,41.28142,-95.963619,0,1
3553,2221,33rd Ave & Lake SW,,41.2812649255447,-95.9624210549282,0,1
3544,2222,33rd Ave & Grant NW,,41.2793488989637,-95.9624058160622,0,1
9518,1155,33rd Ave & 33rd St SW,,41.2778617613734,-95.9616678377682,0,1
3700,2224,33rd & Parker NW,,41.276588,-95.9615,0,1
3520,2225,33rd & Decatur NW,,41.275772,-95.9615,0,1
3526,2226,33rd & Seward NW,,41.2738576424117,-95.9614950852391,0,1
3695,2227,33rd & Hamilton NW,,41.2724827573884,-95.9614952006985,0,1
3538,2228,33rd & Myrtle Ave NW,,41.2706604298555,-95.9614726609604,0,1
3595,2229,33rd & Lincoln Blvd NW,,41.268852,-95.96147,0,1
8890,3136,33rd & Burt NW,,41.267062,-95.9615,0,1
3583,2231,33rd & California NW,,41.265007,-95.9615,0,1
3586,2232,California & 32nd SW,,41.2647691752369,-95.9599860859105,0,1
9669,3288,31st & Dewey NW,,41.2561819555776,-95.9578971569441,0,1
9670,3289,31st & St Marys Ave NW,,41.2530852518812,-95.9578917597803,0,1
3368,1834,Park Ave & Mason NW,,41.2508013296188,-95.9558387377962,0,1
3269,1835,Park Ave & Pacific NW,,41.2489569288591,-95.9557589063303,0,1
3251,1836,Park Ave & Poppleton Ave NW,,41.24704,-95.95575,0,1
3248,1837,Park Ave & Woolworth Ave SW,,41.2449882881037,-95.9557958326872,0,1
3350,1838,Park Ave & Hickory NW,,41.243529,-95.95579,0,1
3336,1839,Park Ave & Shirley SW,,41.2411159422745,-95.9557515941987,0,1
3334,1840,Park Ave & Ed Creighton Ave NW,,41.239686829218,-95.9557720452969,0,1
2974,1841,Ed Creighton & 31st NW,,41.23915,-95.958072,0,1
3328,1843,32nd Ave & Martha NW,,41.2379245640414,-95.9603512855869,0,1
2985,1844,32nd Ave & Arbor NW,,41.2366596244628,-95.9602851977981,0,1
2990,1845,32nd Ave & Wright NW,,41.2338382857813,-95.9603331594948,0,1
189,1846,32nd Ave & Frederick NW,,41.231424645106,-95.9604090594988,0,1
8877,1847,32nd Ave & Vinton NW,,41.22966,-95.960435,0,1
9604,3255,North Omaha TC Bay 5,,41.2979658900683,-95.9576465315169,0,1
5619,1154,42nd & Fowler Ave NE,,41.301628875588,-95.9757625750069,0,1
5621,3131,42nd & Grand Ave SE,,41.303038,-95.97577,0,1
4103,1156,42nd & Browne NE,,41.3050093420429,-95.9757730807601,0,1
5623,1157,42nd & Fontenelle Blvd SE,,41.3071433105833,-95.9757765697186,0,1
4130,3130,42nd & Redman Ave SE,,41.3093311902426,-95.9757730878049,0,1
1849,1160,42nd & Himebaugh Ave SE,,41.3109692753896,-95.9757756679263,0,1
5628,1161,42nd & Laurel Ave NE,,41.3122435898003,-95.9757717895856,0,1
1861,1162,42nd & Kansas Ave SE,,41.31385,-95.97578,0,1
4223,3129,42nd & Curtis Ave SE,,41.3155156017183,-95.9757823494056,0,1
3829,1164,44th & Curtis Ave NE,,41.315700997885,-95.9781172601454,0,1
3834,1165,45th & Curtis Ave NE,,41.3157375847214,-95.980457498564,0,1
4125,1166,46th Ave & Curtis Ave NE,,41.31575,-95.982406,0,1
4119,1167,48th & Curtis Ave NE,,41.31576,-95.985228,0,1
5635,1168,49th & Curtis Ave NE,,41.3157317058301,-95.9876420627444,0,1
9561,1169,49th Ave & Curtis Ave NE,,41.3157581132503,-95.9893068576844,0,1
3853,1170,51st & Curtis Ave NE,,41.315750560007,-95.9923458378135,0,1
4045,1171,53rd & Sorensen Pkwy NW,,41.3167196735751,-95.9962994404145,0,1
5704,1172,56th & Sorensen Pkwy NW,,41.3177035953664,-96.0007583791762,0,1
3871,1173,60th & Sorensen Pkwy NW,,41.317663326644,-96.005440802722,0,1
980,1174,62nd Ave & Sorensen Pkwy NE,,41.31766,-96.007223,0,1
6173,1175,Roncalli High & Sorensen Pkwy NE,,41.31766,-96.00945,0,1
776,1176,65th & Sorensen Pkwy NE,,41.31766,-96.012116,0,1
3920,1177,66th & Sorensen Pkwy NE,,41.31766,-96.014021,0,1
901,1178,Newport Ave & Sorensen Pkwy NE,,41.318389,-96.01699,0,1
9282,1179,67th Plz & Newport SE,,41.3192960275352,-96.0172488045668,0,1
9422,1180,68th Plz & Newport (Immanuel) NW,,41.3202142673267,-96.0189226732673,0,1
8529,1181,Newport Ave & Immanuel Hospital NW,,41.32024,-96.020538,0,1
8530,1071,Entrance A & Newport Ave NE,,41.32019,-96.021908,0,1
3894,1183,72nd & Redick Plz SW,,41.316929,-96.02396,0,1
2352,1184,72nd & Crown Point Center SB,,41.315642,-96.02396,0,1
3892,1185,72nd & Crown Point Ave SW,,41.312164,-96.02392,0,1
3997,1186,72nd & Hartman Ave NW,,41.310421,-96.02392,0,1
7835,1187,72nd & Marian High Rd NW,,41.3033,-96.02391,0,1
9423,1188,72nd & Home Depot Exit SW,,41.301861,-96.02391,0,1
8008,3351,78th & Military Ave NE,,41.30276,-96.0334,0,1
9637,3352,78th & Jaynes,,41.3086020346609,-96.0333811141859,0,1
5593,1199,78th & Crown Point Ave NW,,41.31276,-96.033689,0,1
3975,1200,79th & Crown Point Ave NE,,41.3127429052914,-96.0358475126603,0,1
5596,1201,Crown Point & NW High E Entrance NW,,41.31273,-96.040125,0,1
3872,1202,Crown Point & NW High W Entrance NE,,41.3125357182109,-96.0426811552716,0,1
5598,1203,Crown Point Ave & Wenninghoff Rd NE,,41.3110885273159,-96.0459487078385,0,1
3865,1204,Blair High Rd & Military Rd NW,,41.3106926,-96.0488048,0,1
3862,1205,89th & Military Ave NE,,41.3104964297447,-96.0507348017758,0,1
3860,1206,90th & Plaza North NW,,41.3097363896486,-96.0526947382624,0,1
3854,3128,90th & Fort NW,,41.307002,-96.0527,0,1
3852,1208,90th & Browne NW,,41.3044394220196,-96.0527090733945,0,1
4117,1209,90th & Larimore Ave NW,,41.302603397412,-96.0527033345656,0,1
3848,1210,90th & Tomahawk Blvd NW,,41.300361,-96.0527,0,1
4123,1211,90th & Taylor NW,,41.298534,-96.05271,0,1
4126,1212,90th & Sprague NW,,41.295666,-96.0527,0,1
3833,1213,90th & Spaulding NW,,41.2938831398874,-96.0528497574708,0,1
3832,1214,90th & Maplewood Blvd SW,,41.2908256716701,-96.0531952757974,0,1
3840,1215,90th & Bedford Ave NW,,41.2891495065571,-96.0528547190356,0,1
8538,1216,90th & Shopping Ctr MB,,41.287042,-96.05269,0,1
4276,3090,90th & Maple SW,,41.28444,-96.0527,0,1
1853,1490,90th & Ohio NW,,41.282021,-96.0527,0,1
1851,1491,90th & Grant NW,,41.279852,-96.05271,0,1
830,1492,90th & Blondo NW,,41.278144,-96.05271,0,1
1840,1493,90th & Parker NW,,41.2770452427303,-96.0527021834333,0,1
4211,1494,90th & Franklin NW,,41.275245,-96.05269,0,1
1833,1495,90th & Meadow Dr NW,,41.272772,-96.05267,0,1
4207,1496,90th & Western Ave NW,,41.27072044331,-96.0526629580871,0,1
1790,1497,90th & Cuming MB,,41.268923,-96.05265,0,1
5045,1498,90th & Burt NW,,41.26698,-96.053008,0,1
1780,1499,91st Plz & Burt NW,,41.2669857952982,-96.055213229647,0,1
4161,1500,93rd & Burt NE,,41.266992424918,-96.0571822859016,0,1
9562,1501,94th & Burt NW,,41.2669528411498,-96.060498838124,0,1
1682,1502,96th & Burt NE,,41.2669252264873,-96.0619478394206,0,1
8484,1503,96th & 800 Block SE,,41.2684286054018,-96.0621670554311,0,1
1684,1504,96th & Nicholas NW,,41.2695804756715,-96.0626584966967,0,1
5614,1505,97th Plz & Nicholas NW,,41.2695548606557,-96.0646565327869,0,1
1403,1218,98th & Westroads Entr 8 NW,,41.266264438993,-96.0652004919007,0,1
9625,3271,Westroads TC Bay 3,,41.2684974156171,-96.0713908161209,0,1
590,3249,42nd & Ames Ave SW,,41.2988586395486,-95.9757761197866,0,1
2129,1310,42nd & Paxton Bd SW,,41.2973998296793,-95.9757947724104,0,1
8216,1311,42nd & Sprague NW,,41.2961476797418,-95.9757736687597,0,1
8489,1312,42nd & Spaulding NW,,41.2941970790325,-95.9758007291199,0,1
3579,1313,42nd & Pratt NW,,41.2923906075166,-95.9757429707382,0,1
3601,1314,42nd & Pinkney NW,,41.2905964836664,-95.9757485626856,0,1
8217,3155,42nd & Bedford NW,,41.2887386302828,-95.9757493557112,0,1
3217,1319,45th & Wirt NW,,41.286967,-95.98055,0,1
6891,1320,45th & Maple NW,,41.285112,-95.98055,0,1
3222,1321,45th & Miami NW,,41.283193,-95.98053,0,1
3988,1322,45th & Lake NW,,41.281443,-95.98053,0,1
8218,1323,45th & Grant NW,,41.279918,-95.98053,0,1
8507,1324,Military Ave & Burdette SW,,41.2785080019815,-95.980042172391,0,1
3215,1325,Military Ave & Decatur NW,,41.2763607805937,-95.9790676973208,0,1
3495,1326,Military Ave & Seward NW,,41.2742389634707,-95.9780774465944,0,1
3230,1327,Military Ave & Hamilton NW,,41.272431288322,-95.9772326678832,0,1
3234,1328,Hamilton & 41st SW,,41.2721550380499,-95.9746765600475,0,1
3199,1329,Hamilton & 40th SW,,41.27215,-95.973083,0,1
3478,1330,40th & Nicholas NW,,41.270107,-95.97292,0,1
1104,3153,40th & Cuming NW,,41.268289,-95.97293,0,1
3471,1332,40th & Burt SW,,41.266698405484,-95.9729266982815,0,1
3465,1333,40th & California NW,,41.264792,-95.97292,0,1
3453,1335,40th & Davenport NW,,41.26156,-95.973,0,1
2126,3151,40th & Dodge NW,,41.259801,-95.97331,0,1
9629,3148,40th at Farnam NW,,41.2579398376483,-95.9733645796495,0,1
3279,1351,42nd & Frances NW,,41.2404352778885,-95.9758291055578,0,1
3260,1352,42nd & Marinda NW,,41.238552,-95.97582,0,1
5559,1353,42nd & Castelar SW,,41.236975,-95.97583,0,1
3254,1354,42nd & Bancroft NW,,41.2343327416966,-95.9758398375593,0,1
2713,1355,42nd & Frederick NW,,41.2319376551695,-95.9758492755771,0,1
3246,1356,42nd & Vinton NW,,41.22946,-95.97584,0,1
1373,1357,42nd & Grover NW,,41.2270885360122,-95.9758492496948,0,1
2705,1358,42nd & D St NW,,41.2215744386694,-95.9758475987526,0,1
2710,1359,42nd & F St NW,,41.219869,-95.97586,0,1
2707,1360,42nd & Dayton SW,,41.2178035678833,-95.9760195883212,0,1
8493,1361,42nd & Hillsdale SW,,41.2161640683244,-95.976154342875,0,1
2700,1362,42nd & J St NW,,41.214557764707,-95.9762510588235,0,1
2521,2936,L St & 42nd SE,,41.21262,-95.97572,0,1
1435,1365,L St & 39th SW,,41.2126178358077,-95.9719255982715,0,1
2199,1366,L St 36th SE,,41.21225,-95.965947,0,1
2566,1368,33rd St & L SW,,41.2116199379256,-95.9626069530659,0,1
8146,1369,Babe Gomez & 33rd SE,,41.210620268592,-95.9618924844765,0,1
2820,1370,Babe Gomez Ave & B. Gomez Cir SW,,41.2102124447334,-95.9598484265279,0,1
9365,1371,Babe Gomez Ave & MCC Exit SW,,41.2093863598972,-95.9578773881748,0,1
9697,3367,Nicholas St & 13th NW,,41.269992,-95.933472,0,1
9698,3368,14th & Cuming NW,,41.2681727039171,-95.9344656370309,0,1
9677,3295,14th & Mike Fahey NW,,41.2659864809975,-95.9344949489311,0,1
9127,2294,14th & California SW,,41.264138,-95.934583,0,1
9760,3680,Howard St & 14th SW,,41.2554806750488,-95.9346377563458,0,1
9751,3682,14th & Jones SW,,41.253198,-95.93456,0,1
9752,3683,Leavenworth & 13th SW,,41.25233,-95.93332,0,1
686,2575,13th & Pacific NW,,41.2492961194584,-95.9332761367568,0,1
4892,2576,13th & Pierce NW,,41.2482045327051,-95.9332878644316,0,1
4880,2577,13th & William NW,,41.2457305328389,-95.933299436057,0,1
1919,2578,13th & Hickory NW,,41.243055,-95.93331,0,1
9467,2579,13th & Center SW,,41.241449,-95.93332,0,1
1991,2580,13th & Dorcas St NW,,41.239628,-95.93332,0,1
941,2581,13th & Martha NW,,41.2383193910032,-95.9333368581315,0,1
4833,2582,13th & Castelar NW,,41.237113,-95.93334,0,1
1969,2583,13th & Vinton NW,,41.235111,-95.93333,0,1
9468,2584,13th & Bancroft SW,,41.234102,-95.93332,0,1
1368,2585,13th & 13th Ct NW,,41.2329254106828,-95.9333324189911,0,1
9469,2586,13th & Deer Park Blvd NW,,41.2279887128712,-95.9334028712871,0,1
763,2587,13th & B St NW,,41.2255296813164,-95.9333380868015,0,1
8716,2588,13th & Bert Murphy NW,,41.223967,-95.93334,0,1
787,2589,13th & C St SW,,41.222788,-95.93334,0,1
1566,2590,13th & Kavan NW,,41.2216639990875,-95.9333350605922,0,1
5903,2591,13th & Mid City Ave NW,,41.2196816281485,-95.93334939261,0,1
4793,2592,13th & G St SW,,41.2180501784615,-95.933338567155,0,1
878,2937,13th & J St NW,,41.214957068617,-95.9333239110769,0,1
7105,3226,Missouri Ave & 13th NW,,41.2129691225019,-95.9339118650402,0,1
8717,2594,Missouri Ave & 16th NE,,41.21297,-95.936797,0,1
8718,2595,Missouri Ave & 18th  NE,,41.21297,-95.939257,0,1
4775,2596,Missouri Ave & 20th NE,,41.21296,-95.941642,0,1
8719,2597,L St & 23rd NE,,41.21227,-95.945373,0,1
1607,3175,L St & 24th NE,,41.21227,-95.94683,0,1
1510,2599,L St & 25th NE,,41.21226,-95.948421,0,1
2691,2600,30th & L St SW,,41.2119388416588,-95.9577676908577,0,1
9572,2601,30th & One World Bldg SW,,41.2113582873303,-95.9561340339366,0,1
8720,2602,30th & Stockyards Bldg NW,,41.210022,-95.95512,0,1
9615,3277,Metro College TC Bay 4,,41.206434,-95.955687,0,1
3240,1800,32nd Ave & Frederick SE,,41.2312656056997,-95.9604074346793,0,1
3320,1801,32nd Ave & Wright SE,,41.2336617320657,-95.9603438789974,0,1
3324,1802,32nd Ave & Arbor SE,,41.2356728868454,-95.9602676577369,0,1
2980,1803,32nd Ave & Martha SE,,41.2376702820306,-95.9603379277581,0,1
2978,1804,Ed Creighton & 32nd Ave SE,,41.2391542338018,-95.9597286253,0,1
8135,1805,Ed Creighton & 31st SW,,41.23915,-95.957964,0,1
8878,1806,Park Ave & Ed Creighton NE,,41.2395104223606,-95.9557745653948,0,1
3244,1807,Park Ave & Shirley SE,,41.2411066229179,-95.9557517521539,0,1
9522,1808,Park Ave & Hickory NE,,41.24387,-95.95579,0,1
3354,1809,Park Ave & Woolworth SE,,41.2450077984058,-95.9557961114058,0,1
3361,1810,Park Ave & Poppleton SE,,41.2469010917475,-95.9557514643189,0,1
8879,1811,Park Ave & Pacific SE,,41.248726,-95.95575,0,1
8880,1812,Park Ave & Mason SE,,41.2506730368182,-95.9558365192531,0,1
3273,3283,Park Ave & Leavenworth NE,,41.252726,-95.95581,0,1
9671,3284,Park Ave & Dewey SE,,41.255878,-95.95584,0,1
8881,2166,California & 30th NW,,41.2647881242905,-95.957031672825,0,1
3585,2167,California & 32nd NE,,41.2647703294908,-95.9597987641768,0,1
3582,2168,33rd & California NE,,41.264952,-95.9615,0,1
3591,3139,33rd & Burt NE,,41.267164,-95.9615,0,1
3594,2170,33rd & Lincoln Blvd NE,,41.269004,-95.96147,0,1
3597,2171,33rd & Myrtle SE,,41.270473,-95.96147,0,1
3532,2172,33rd & Hamilton SE,,41.2721303300823,-95.9614992633344,0,1
3697,2173,33rd & Seward SE,,41.27366,-95.96149,0,1
3699,2174,33rd & Decatur SE,,41.2754711179659,-95.9615013084896,0,1
3511,2175,33rd & Parker SE,,41.276349,-95.9615,0,1
3514,2176,33rd & 33rd Ave SE,,41.277737280087,-95.9615184781436,0,1
3550,2177,33rd & Erskine NE,,41.2800359212993,-95.9614628519675,0,1
7276,2178,33rd & Lake SE,,41.2813390923907,-95.9614880887966,0,1
3554,2179,Lake & 34th Ave NE,,41.28142,-95.963624,0,1
9517,2180,Lake & 35th NW,,41.2814104074618,-95.9649105661956,0,1
3546,2181,Lake & John Creighton Blvd NE,,41.28139,-95.96695,0,1
3542,2182,Lake 37th NW,,41.2813930604945,-95.9688371877959,0,1
3515,2183,Lake 38th NE,,41.2813987716149,-95.9700822120568,0,1
3513,2184,40th & Lake NE,,41.281989,-95.97227,0,1
3524,2185,40th & Miami SE,,41.2829777230768,-95.9722882153846,0,1
3530,2186,40th & Maple SE,,41.28467,-95.97228,0,1
3536,2187,40th & Wirt SE,,41.286334,-95.97229,0,1
4152,3138,40th & Bedford Ave SE,,41.2886257799009,-95.9721433061756,0,1
9107,2189,40th & Pinkney SE,,41.2903663046236,-95.9721205022457,0,1
3613,2190,40th & Pratt SE,,41.2921954226267,-95.9720912028609,0,1
3619,2191,Pratt & 39th SW,,41.29227,-95.971074,0,1
3454,2197,Paxton Blvd & 34th Ave SW,,41.2963707796521,-95.9641599566472,0,1
2343,2198,Paxton Blvd & 33rd SW,,41.2970582648649,-95.9618409891892,0,1
7387,9991,22nd & Cuming SE,,41.267953,-95.944784,0,1
7546,2687,Douglas & 8th SW,,41.25859,-95.926733,0,1
8709,2690,Riverfront Dr & Luminarium NE,,41.2628824265251,-95.92514504816,0,1
7978,2565,Riverfront Dr & Bob Kerrey Pedestrian Bridge NE,,41.2660945764706,-95.9252315058824,0,1
8799,3371,Riverfront Dr & Gallup Dr SE,,41.2700952634948,-95.9250499445648,0,1
7895,1747,Abbott Dr & Owen Pkwy SE,,41.2771685,-95.9149815,0,1
7549,1748,Abbott Dr & Ave H SE,,41.2809665,-95.9111935,0,1
8800,1749,Abbott Dr & East Locust SE,,41.2849149715858,-95.9060914482273,0,1
8801,1750,East Locust & 20th SW,,41.28491,-95.904712,0,1
7493,2164,Nakoma Ave & Abbott SE,,41.2890328624216,-95.9027965705998,0,1
7544,1147,Eppley Airport Terminal,,41.300577,-95.89996,0,1
9398,1148,Abbott Dr & East Fort SE,,41.3067167138408,-95.9081866259515,0,1
9399,2163,Abbott Dr & Lindbergh Dr NE,,41.3136803114187,-95.91553183391,0,1
7574,1752,Abbott Dr & 4th Cir NE,,41.315184,-95.91992,0,1
7575,1753,Abbott Dr & Crown Point (Nogg) NE,,41.3159937017804,-95.9227903635015,0,1
6222,1754,John Pershing Dr & 9th NE,,41.3173037249284,-95.9274094097421,0,1
8804,1755,John Pershing & 12th NE,,41.31759,-95.930182,0,1
8805,1756,John Pershing Dr & 14th NE,,41.31759,-95.931776,0,1
6218,1757,16th St & John J Persihng Dr SW,,41.3172,-95.9373,0,1
9400,1758,16th 6300 Block SW,,41.3155047685905,-95.9373035857314,0,1
9401,1759,16th & Laurel NW,,41.312801,-95.93731,0,1
5483,1760,16th & Storz Exp SW,,41.31073,-95.93731,0,1
6216,1761,16th & Jaynes SW,,41.3081025939518,-95.9373268369206,0,1
4426,1762,16th & Fort NW,,41.306811,-95.93734,0,1
7576,1763,16th & Browne NW,,41.3050564640025,-95.937347552,0,1
7578,1764,16th & Carter Blvd NW,,41.3035967447304,-95.9373331991013,0,1
7579,1765,16th & Fowler Ave NW,,41.30155,-95.93733,0,1
7580,1766,16th & Ames Ave NW,,41.2997447841117,-95.9373391400883,0,1
7581,1767,16th & Cornish Blvd NW,,41.297948,-95.93734,0,1
8806,1768,Sprague & 16th NW,,41.29597,-95.937872,0,1
7583,1769,Sprague & 18th NE,,41.29597,-95.939794,0,1
7586,3132,Sprague & Florence BlvdNE,,41.2959623260323,-95.9418855281867,0,1
7588,1771,Sprague & 22nd NE,,41.2959509382682,-95.9444274078189,0,1
7590,3134,Sprague & 24th NE,,41.2959188955092,-95.9468308341626,0,1
2659,1773,Sprague & 25th NE,,41.29593,-95.949321,0,1
7594,1774,Sprague & 27th NW,,41.2959116103479,-95.951322983049,0,1
7596,1775,Sprague & 28th Ave NE,,41.29591,-95.954105,0,1
7598,1776,Sprague & 30th NE,,41.2958921354473,-95.9562626541369,0,1
9606,3257,North Omaha TC Bay 9,,41.2980659457693,-95.9572562430643,0,1
8855,1574,Sorensen Pkwy & 32nd NW,,41.3037383654883,-95.9607484074296,0,1
4237,3189,Fontenelle Blvd & Jaynes SE,,41.3083666286307,-95.9702467323651,0,1
7897,1576,Fontenelle Blvd & Hartman Ave SE,,41.3102608,-95.9689346,0,1
7899,1577,Fontenelle Blvd & Laurel SE,,41.3120465929208,-95.9682928938053,0,1
7901,1578,Fontenelle Blvd & Kansas SE,,41.3138824179983,-95.9677904793945,0,1
7903,1579,Fontenelle Blvd & Curtis SE,,41.31556,-95.96737,0,1
4518,1587,Martin & Redick SE,,41.31745,-95.96733,0,1
6510,1588,Martin & Newport SE,,41.3199600433041,-95.9655719395269,0,1
6511,1589,Martin & 34th SW,,41.3223806288952,-95.9633774135978,0,1
4304,3234,Martin & 33rd SW,,41.3231884049034,-95.9610559843982,0,1
8861,3245,Martin & 30th SW,,41.3242129,-95.9577413,0,1
3568,1592,Martin & 28th SW,,41.32521,-95.954644,0,1
6520,1593,Martin & Minne Lusa Blvd SW,,41.325236251785,-95.9511686268374,0,1
3749,1594,Minne Lusa Blvd & Read NW,,41.3237643773585,-95.9513873207547,0,1
6521,1595,Vane & 25th SE,,41.3229510512039,-95.949234852484,0,1
5197,1596,24th & Vane SW,,41.322969281394,-95.9470435397556,0,1
6358,1597,24th & Titus NW,,41.3207982938457,-95.9469422507692,0,1
4493,1598,24th & Newport NW,,41.3191827833625,-95.9469578006932,0,1
1610,1599,24th & Redick SW,,41.3173096160481,-95.9469217307578,0,1
1661,1600,24th & Miller Park Dr NW,,41.3159873194645,-95.9469445289748,0,1
6561,1601,24th & Kansas SW,,41.3140616226119,-95.9469689220869,0,1
903,1602,24th & Laurel NW,,41.312369448503,-95.9469509137961,0,1
907,1603,24th & Himebaugh NW,,41.3112942773114,-95.9469407731864,0,1
4986,1604,24th & Ellison NW,,41.3098220384782,-95.9469432681476,0,1
9430,1605,24th & Ogden NW,,41.3078476414266,-95.9469224782664,0,1
8844,1606,24th & Fort NW,,41.3068676135244,-95.9469256085884,0,1
6564,1607,24th & Browne NW,,41.3055452288663,-95.9469079649485,0,1
869,1608,24th & Saratoga NW,,41.3039244272854,-95.9469036661987,0,1
9429,1609,24th & Larimore SW,,41.30231,-95.94691,0,1
4425,1610,24th & Fowler NW,,41.3011838351031,-95.9469354041224,0,1
4225,3248,24th & Ames NW,,41.2998566190672,-95.9469532843343,0,1
8462,1256,75th & Dodge NE,,41.25968,-96.029062,0,1
2077,2953,76th & Dodge NE,,41.25969,-96.031031,0,1
8463,1946,76th & Heritage Plz Entrance SE,,41.261326820761,-96.0314921889274,0,1
7268,1947,76th & Cass NW,,41.26329,-96.031177,0,1
7674,1948,77th Ave & Cass NE,,41.26329,-96.033649,0,1
7676,1949,78th & Cass NW,,41.2633080468547,-96.0357762490239,0,1
8906,1950,80th & Cass NE,,41.2633311647555,-96.038569686172,0,1
7677,3237,84th & Cass NE,,41.2633405090548,-96.0428198288443,0,1
7680,1952,85th & Underwood Ave SE,,41.2648816761675,-96.0434540506468,0,1
7682,1953,85th & Burt SE,,41.266771898549,-96.0440570114992,0,1
7684,1954,85th & Izard SE,,41.2685122771502,-96.0446166226373,0,1
7685,1955,85th & Western Ave SE,,41.2703241623762,-96.0452155762376,0,1
7687,1956,85th & Hamilton SE,,41.2721796,-96.0458132,0,1
7688,1957,85th & Seward SE,,41.2740432756757,-96.0464048540541,0,1
7689,1958,85th & Decatur SE,,41.2758264215576,-96.046985947535,0,1
1005,1959,85th & Blondo SE,,41.2776270337079,-96.0475008539326,0,1
7026,1960,Blondo & Keystone Dr SW,,41.2778522041237,-96.0446584907216,0,1
936,1961,Blondo & 83rd SW,,41.27781,-96.042648,0,1
707,1962,Blondo & Robertson Dr SW,,41.2778164862843,-96.0393797256858,0,1
687,1963,Blondo & Benson Gardens Blvd SW,,41.2778,-96.037608,0,1
2211,1964,Blondo & Cole Creek Dr SW,,41.2778047269092,-96.0355163454618,0,1
2215,1965,Blondo & 78th SW,,41.2778153518313,-96.0336794450611,0,1
2163,1966,Blondo & 75th Ave SW,,41.2778226686455,-96.030033491642,0,1
751,1967,Blondo & 74th SW,,41.2778378946595,-96.0273973811797,0,1
9478,3657,72nd & Blondo SE,,41.27779,-96.023317,0,1
8907,1969,70th Ave & Blondo SW,,41.27778,-96.021491,0,1
8908,2113,69th & Blondo SW,,41.2777892187417,-96.0192828133844,0,1
2404,2114,67th Ave & Blondo SW,,41.27777,-96.016878,0,1
2444,2115,66th & Blondo SW,,41.27776,-96.014599,0,1
5380,2116,65th & Blondo SW,,41.27777,-96.012135,0,1
3086,2117,63rd & Blondo SW,,41.27776,-96.009777,0,1
3071,2118,61st & Blondo SW,,41.2777512182734,-96.0073186293584,0,1
2480,2119,60th & Blondo SW,,41.27775,-96.00493,0,1
3077,2120,60th & Grant SE,,41.279477,-96.00481,0,1
2491,2121,60th & Lake SE,,41.281307139765,-96.0048009984971,0,1
3925,2122,60th & Miami SE,,41.283122,-96.00479,0,1
9661,3238,60th & Maple SE,,41.2848727093301,-96.0047735358519,0,1
3959,3239,60th & NW Radial Hwy NE,,41.2870507199996,-96.00476504,0,1
8910,2126,60th & Catholic Charities SE,,41.2885153652678,-96.0047641435765,0,1
8911,2127,60th & Pinkney SE,,41.2901889249451,-96.004754397397,0,1
8912,2128,60th & Pratt SE,,41.29222,-96.00474,0,1
8913,2129,60th & Spaulding SE,,41.294009,-96.00473,0,1
8914,2130,60th & Sprague SE,,41.295753,-96.00472,0,1
8915,2131,60th & Taylor SE,,41.2979844474421,-96.0047017683459,0,1
9662,3240,60th & Ames Ave SE,,41.2991841362282,-96.004686130306,0,1
3946,3241,60th & Ames Ave NE,,41.299904,-96.00468,0,1
1020,2134,60th & Fowler Ave SE,,41.301118,-96.00468,0,1
1012,2135,60th & Grand Ave SE,,41.3025532513893,-96.0046729985956,0,1
5695,2136,60th & Browne SE,,41.3048194183029,-96.0046605496268,0,1
3971,2137,60th & Fort SE,,41.30669,-96.00465,0,1
3967,3230,60th & Ogden SE,,41.307703038503,-96.0046428894606,0,1
8916,2138,60th & Hartman Ave SE,,41.3101976118369,-96.0045722036895,0,1
8918,2141,60th & Laurel NE,,41.312169,-96.00464,0,1
5697,2142,60th St & Kansas Ave SE,,41.313815,-96.00464,0,1
8920,2143,Crown Tower & Henninger Dr SE,,41.3148877744807,-96.0023906231454,0,1
8928,2144,56th & Northampton Blvd SW,,41.3154195703022,-96.0001732417872,0,1
9245,2145,52nd & Kansas Ave SW,,41.3140072317295,-95.9951516327698,0,1
4016,2146,52nd & Laurel Ave NW,,41.312282,-95.99498,0,1
4011,2147,52nd & Hartman Ave NW,,41.310487,-95.99499,0,1
9070,2148,50th Ave & Hartman Ave SW,,41.3103713988166,-95.9915752828403,0,1
9071,2149,49th & Hartman Ave SW,,41.3103534719447,-95.9886970691776,0,1
9072,2150,Hartman Ave & Golden Living Ctr MB,,41.3103316710013,-95.9860236020806,0,1
9073,2151,46th & Redman Ave SW,,41.3105054687964,-95.9831816901932,0,1
9074,1115,Redman Ave & Brickstone Appts. MB,,41.3107838716332,-95.9810593421204,0,1
9075,2153,44th & Redman Ave SW,,41.3104195768374,-95.9789616481069,0,1
9076,3242,42nd & Redman Ave SW,,41.3092640995124,-95.9757751843902,0,1
4121,1567,42nd & Fontenelle Blvd NW,,41.3076070175903,-95.9757779172698,0,1
4206,2155,Fontenelle Blvd & Fort NW,,41.3067806936791,-95.977470426256,0,1
1249,2156,Fontenelle Blvd & Browne NW,,41.305108,-95.97804,0,1
8932,2157,Fontenelle Blvd & Grande Ave SE,,41.30313,-95.977802,0,1
6163,2158,42nd & Grand Ave SW,,41.30313,-95.976174,0,1
4177,2159,40th Ave & Grand Ave SE,,41.30312,-95.973305,0,1
8933,2160,40th & Grand Ave SW,,41.3029304562933,-95.9721678460942,0,1
4180,2161,40th & Fowler Ave NW,,41.3014385580373,-95.972150892705,0,1
1580,3243,40th & Ames Ave NW,,41.2996562710505,-95.9721404819612,0,1
6310,1217,Nicholas & 98th SW,,41.2688654381991,-96.0662855727098,0,1
8514,1075,102nd & Hamilton SE,,41.2715943161822,-96.0718174141235,0,1
213,1076,102nd & Seward SE,,41.2731411728046,-96.0717842577904,0,1
1731,1077,102nd Ave & 102nd SE,,41.2756126743716,-96.0717891182922,0,1
8515,3051,102nd & Blondo SE,,41.2776714666938,-96.071757222856,0,1
8516,1079,102nd & Grant NE,,41.2797344536975,-96.0717009820198,0,1
7828,1080,102nd & Ohio SE,,41.281751,-96.07172,0,1
8517,1081,102nd & Corby SE,,41.283692,-96.07179,0,1
3114,1082,102nd & Maple SE,,41.2848852466063,-96.071721178733,0,1
1742,1083,101st & Maple SE,,41.2849981233859,-96.0695296398852,0,1
1755,1084,99th & Maple SW,,41.2849982632733,-96.0683562501174,0,1
1761,1085,96th Dr & Maple SW,,41.2849926740805,-96.0642332882716,0,1
1822,1086,95th Ave & Maple SE,,41.2850183039121,-96.059334343999,0,1
1470,1087,93rd & Maple SE,,41.28502,-96.055343,0,1
9630,3050,90th & Maple SE,,41.2850273219392,-96.0519588887428,0,1
8518,1089,88th & Maple SW,,41.28502,-96.048908,0,1
1872,1090,Keystone Dr & Maple SW,,41.28502,-96.047051,0,1
1874,1091,85th & Maple SW,,41.28502,-96.044822,0,1
2188,1092,83rd & Maple SW,,41.28502,-96.042389,0,1
2191,1093,81st & Maple SW,,41.2850172043243,-96.0395698940541,0,1
7732,1094,79th & Maple SW,,41.285,-96.03652,0,1
2234,1095,78th & Maple SW,,41.28499,-96.033694,0,1
2238,1096,76th/Benson Gardens & Maple SW,,41.285,-96.031305,0,1
2242,1097,75th & Maple SW,,41.2850144670025,-96.0293385788413,0,1
2418,3049,72nd & Maple SW,,41.2849942391063,-96.0242715195655,0,1
2450,1100,69th & Maple SE,,41.285048594497,-96.0189618331032,0,1
2459,1101,67th Ave & Maple SW,,41.28503,-96.016796,0,1
1045,1102,66th & Maple SW,,41.28503,-96.015095,0,1
1120,1103,65th & Maple SW,,41.28502,-96.012073,0,1
1735,1104,63rd & Maple SW,,41.2850021821622,-96.009673832973,0,1
9369,1105,61st & Maple SW,,41.285,-96.007313,0,1
8519,3048,60th & Maple SE,,41.285,-96.004542,0,1
6187,1107,NW Radial & 56th SW,,41.2850068768166,-95.9999586809689,0,1
5009,3075,NW Radial & Country Club/54th SW,,41.2850372283485,-95.9975918423927,0,1
1592,1109,52nd & NW Radial Hwy SW,,41.2845121764706,-95.9951677058824,0,1
9370,1110,NW Radial Hwy & Miami SW,,41.2834529819287,-95.993489518791,0,1
9371,1111,50th & NW Radial HWY SW,,41.28165096,-95.99047728,0,1
1601,1112,49th & NW Radial Hwy SW,,41.2814682584721,-95.9879227501436,0,1
1659,1113,48th & NW Radial Hwy SW,,41.2814939527633,-95.9856581728862,0,1
1100,1114,NW Radial Hwy & Burdette NW,,41.278891,-95.98356,0,1
9372,1116,NW Radial Hwy & Decatur SW,,41.2759966044123,-95.9835475145856,0,1
1071,1117,NW Radial Hwy & Seward NW,,41.2746549065305,-95.9835479245149,0,1
2462,1118,NW Radial Hwy & Hamilton NW,,41.2723642352943,-95.9835309411765,0,1
1052,1119,NW Radial Hwy & Nicholas NW,,41.2701745780669,-95.982927098513,0,1
1640,1120,NW Radial Hwy & Izard NW,,41.2691399999999,-95.98251,0,1
2451,1121,45th & Cuming SW,,41.26794,-95.980827,0,1
4134,1122,44th & Cuming SW,,41.26794,-95.978959,0,1
1121,1123,42nd & Cuming SW,,41.2679321859217,-95.976431380992,0,1
8522,3047,40th & Cuming SW,,41.2679566657525,-95.9731100493658,0,1
1093,1125,38th & Cuming SW,,41.267949358363,-95.9694859932384,0,1
8523,1126,36th & Cuming SW,,41.2679223381099,-95.9666655015418,0,1
1088,1127,34th & Cuming SW,,41.26797,-95.963366,0,1
1077,3046,33rd & Cuming SE,,41.26797,-95.961335,0,1
1068,1129,32nd & Cuming MB,,41.2679651375566,-95.9591814651584,0,1
5372,3045,30th & Cuming SE,,41.2679180660377,-95.9560544811321,0,1
8524,1131,29th & Cuming MB,,41.26796,-95.953678,0,1
7471,1132,27th & Cuming SE,,41.26795,-95.951164,0,1
9373,1133,25th Ave & Cuming SW,,41.26795,-95.949586,0,1
8525,3044,24th & Cuming SW,,41.26796,-95.947217,0,1
7388,3043,22nd & Cuming SW,,41.2679858868701,-95.9453221090161,0,1
7420,3042,20th & Cuming SW,,41.26798,-95.942642,0,1
7422,1137,18th & Cuming SE,,41.26796,-95.939332,0,1
8526,1138,16th & Cuming SW,,41.26796,-95.937329,0,1
9206,1139,16th & Mike Fahey St NW,,41.26601,-95.93711,0,1
9207,1140,16th & Cass NW,,41.263914,-95.93713,0,1
1621,1141,16th & Davenport NW,,41.2617668230014,-95.9371258050571,0,1
3632,1142,16th St & Capitol Ave SE,,41.26067,-95.936073,0,1
1918,2629,72nd & Spring NW,,41.230826,-96.02387,0,1
1970,2630,72nd & Hascall NW,,41.229007,-96.02389,0,1
4957,2631,72nd & Grover NW,,41.2276325135417,-96.0238822687693,0,1
1243,2632,72nd & F St NW,,41.21973,-96.024017,0,1
1975,2633,72nd & J St NW,,41.215393,-96.02395,0,1
8710,2634,72nd & M St SW,,41.2103171529413,-96.0238769882353,0,1
8711,2635,72nd & P St NW,,41.207372,-96.02387,0,1
9190,2636,Q St & 72nd  SE,,41.20526,-96.022953,0,1
9473,3219,Q St & Keystone Trail SE,,41.2052491169205,-96.0157296150646,0,1
8712,2638,Q St & Warhorse Casino SW,,41.20525,-96.01197,0,1
2470,2640,60th & Q St NE,,41.205714,-96.00466,0,1
2506,2641,60th & O St SE,,41.2081808930334,-96.0046631217707,0,1
2502,2642,60th & N St SE,,41.209928,-96.00466,0,1
9193,2643,60th & L St SE,,41.2115555742444,-96.0046513955322,0,1
1462,2644,L St & 56th Plz SE,,41.212434314052,-95.9994662477324,0,1
5795,2645,L St & 54th SW,,41.21244,-95.997831,0,1
3746,2646,L St & 52nd SW,,41.2125175398576,-95.9956903875445,0,1
5794,2647,L St & 51st SE,,41.2125160525719,-95.9931315839592,0,1
1382,2648,L St & 50th SW,,41.21252,-95.991096,0,1
1380,2649,L St & 49th SW,,41.21252,-95.988683,0,1
3691,2650,L St & 48th SW,,41.2125546154532,-95.9863323037147,0,1
2512,2651,L St 46th Ave SW,,41.2125630142975,-95.9838351152013,0,1
9638,2652,L St & 45th SE,,41.2125727647132,-95.9807414694498,0,1
9475,2653,L St & 43rd SW,,41.2125888404548,-95.9785945072453,0,1
1628,2656,30th & Stockyards Bldg SE,,41.209892,-95.95512,0,1
9472,2657,30th & One World NE,,41.2113362969432,-95.9557222270742,0,1
1458,2658,30th & L St SE,,41.2120249754948,-95.9577954759661,0,1
2877,2659,L St & 25th SW,,41.21221577332,-95.9488185045136,0,1
810,3176,L St & 24th SW,,41.2122644305589,-95.9474064442275,0,1
842,2660,L St & 23rd SW,,41.21227,-95.945757,0,1
1606,2661,Missouri Ave & 20th SW,,41.2129449740485,-95.9419665138408,0,1
1645,2662,Missouri Ave & 18th SW,,41.21297,-95.939438,0,1
2492,2663,Missouri Ave & 16th SW,,41.21297,-95.937364,0,1
1429,3177,13th & J St SE,,41.214358,-95.93333,0,1
1466,2665,13th & I St SE,,41.2158835341506,-95.9333120052938,0,1
2505,2666,13th & G St SE,,41.2178691966128,-95.9333359693294,0,1
1431,2667,13th & Mid City Ave NE,,41.2198576390838,-95.9333473218931,0,1
809,2668,13th & Atlas SE,,41.2218972334231,-95.9333385944458,0,1
828,2669,13th & Bert Murphy Ave NE,,41.22397,-95.93334,0,1
1375,2670,13th & B St SE,,41.225089,-95.93334,0,1
4650,2671,13th & Bob Gibson Blvd SE,,41.2275872968512,-95.9333250614352,0,1
7103,2672,13th & 13th Court SE,,41.2321997330318,-95.9333176063348,0,1
1966,2673,13th & Bancroft SE,,41.233975,-95.93332,0,1
829,2674,13th & Vinton SE,,41.234903,-95.93333,0,1
561,2675,13th & Castelar SE,,41.2368602447605,-95.9333392162332,0,1
554,2676,13th & Martha SE,,41.238093,-95.93334,0,1
581,2677,13th & Dorcas SE,,41.2393685004608,-95.9333210397675,0,1
750,2678,13th & Center SE,,41.241266,-95.93332,0,1
742,2679,13th & Hickory SE,,41.2427837087953,-95.9333107036401,0,1
728,2680,13th & William SE,,41.24548,-95.9333,0,1
698,2681,13tlh & Pierce SE,,41.2478840893164,-95.9332904254439,0,1
1980,2682,13th & Pacific SE,,41.249013,-95.93328,0,1
600,2683,13th & Leavenworth SE,,41.2521662124909,-95.933268238844,0,1
9445,2684,13th & Jackson SE,,41.254262,-95.93328,0,1
637,2685,13th & Howard SE,,41.255325,-95.93328,0,1
9699,3362,13th & Dodge SE,,41.2595934118526,-95.9332108325784,0,1
9700,3363,13th & Capitol NE,,41.2611326483166,-95.933214645127,0,1
9702,3364,13th & Cass NE,,41.263977,-95.9331,0,1
9701,3365,13th & Mike Fahey SE,,41.265754,-95.93309,0,1
9704,3366,12th & Izard SE,,41.2686634002953,-95.931831407681,0,1
3644,2295,Dodge & 15th NE,,41.25966,-95.935618,0,1
352,2296,17th & Dodge NE,,41.2598776172999,-95.9384320354637,0,1
9128,2297,17th & Davenport SE,,41.2614396853769,-95.9384557963844,0,1
9129,2298,17th & Cass SE,,41.2628515427305,-95.938466718091,0,1
9130,2299,17th & California NE,,41.2648717087832,-95.9384204129582,0,1
9631,2300,Mike Fahey & 16th SW,,41.26584,-95.937378,0,1
9132,2301,Mike Fahey & 15th SW,,41.2658484972602,-95.9360393452164,0,1
3036,1228,Dodge & 12th NE,,41.25968,-95.931627,0,1
7208,1229,Dodge & 14th NE,,41.2596643336019,-95.9342048162772,0,1
2012,1826,St Marys Ave & 18th NE,,41.2551009168766,-95.9395937632242,0,1
9463,1827,St Marys Ave & 20th NE,,41.25437,-95.94207,0,1
2895,1828,St Marys Ave & 22nd NW,,41.2540969723077,-95.9451644984616,0,1
2633,2924,St Marys Ave & 24th NE,,41.2540108615385,-95.9466675076923,0,1
2907,1830,St Marys Ave & 26th NW,,41.2536876137931,-95.9503086344828,0,1
2910,1831,St Marys Ave & 27th NE,,41.2535802827586,-95.9516466068966,0,1
3274,2925,St Marys & Park Ave NW,,41.25353,-95.95616,0,1
1953,2234,St Marys Ave 31st NE,,41.2530434713467,-95.9575653968481,0,1
1946,2235,Leavenworth & 33rd NE,,41.25239,-95.961226,0,1
1930,2236,Leavenworth & 35th NE,,41.25238,-95.963535,0,1
1925,2237,Leavenworth & 36th NE,,41.25239,-95.966014,0,1
3314,2238,Leavenworth & 38th NE,,41.25238,-95.968825,0,1
8668,2239,Leavenworth & 38th Ave NE,,41.25238,-95.970305,0,1
3299,2240,Leavenworth & 40th NE,,41.2524,-95.973007,0,1
9464,2241,Leavenworth & 40th Ave NW,,41.2524,-95.973943,0,1
9635,2926,Leavenworth & 42nd NW,,41.25241,-95.976144,0,1
1999,2242,Leavenworth & 43rd NW,,41.2524,-95.977778,0,1
2323,2243,Leavenworth & 45th NE,,41.2524,-95.980466,0,1
8669,2244,Leavenworth & 46th Ave NE,,41.2524092140932,-95.9828642549119,0,1
3003,2245,Leavenworth & 48th NW,,41.25244,-95.985775,0,1
6084,2246,Leavenworth & 49th NW,,41.2523980215109,-95.9886598699037,0,1
2924,2247,Leavenworth & 50th NE,,41.2523909389394,-95.9900197236403,0,1
2930,2248,Leavenworth & 51st NE,,41.25239,-95.9925,0,1
6095,2249,Leavenworth & 52nd NE,,41.2523702069995,-95.9950651600583,0,1
2942,2250,Leavenworth & 55th NE,,41.2523623917571,-95.9978551956616,0,1
2948,2251,Leavenworth & 57th NE,,41.25235,-96.001581,0,1
2956,2252,60th & Leavenworth SW,,41.2520182687786,-96.0047733674208,0,1
2952,2253,60th & Mason NW,,41.250616,-96.00477,0,1
9265,2254,Pacific & 62nd NE,,41.24876,-96.007519,0,1
9266,2255,Pacific & Elmwood Park Dr NW,,41.24878,-96.013538,0,1
9267,2256,67th & Pacific SW,,41.2480899979014,-96.015577072403,0,1
7843,2257,67th & Pine NW,,41.243972078154,-96.0146435452308,0,1
8674,2258,Pine & Aksarben Dr NE,,41.2437711736561,-96.0166778975383,0,1
2015,1233,Aksarben Dr & Frances NW,,41.240218609901,-96.0176011009901,0,1
321,2045,143rd Plz & Dillards Entrance,,41.2313442264151,-96.1350087924528,0,1
9393,2046,Oakview Dr & 144th NE,,41.23169,-96.138247,0,1
8750,2047,144th & W. Center SE,,41.2335972791352,-96.1385070188108,0,1
9570,2048,W. Center St & 140th SW,,41.2338167393665,-96.1357790733032,0,1
9392,2049,W Center & 140th SE,,41.2338508415075,-96.1329629736706,0,1
3284,2050,W Center & 139th SW,,41.2339214588548,-96.1295857043969,0,1
381,2051,W Center & 138th SE,,41.2339512625922,-96.1271744728152,0,1
8751,2052,W Center & 135th Ave SW,,41.2339782029703,-96.124713529703,0,1
6547,2053,W Center & 132nd SE,,41.23404,-96.118944,0,1
428,2054,W Center & 129th Ave SW,,41.2340059783964,-96.1149805525612,0,1
456,2055,W Center & 124th SW,,41.23399,-96.107666,0,1
429,2056,W Center & 122nd Ave SW,,41.23399,-96.10525,0,1
424,2057,W Center & 120th SW,,41.23398,-96.101955,0,1
334,2058,W Center & 119th SW,,41.2339965291551,-96.0986064299882,0,1
340,2059,W Center & 117th SE,,41.23402,-96.095701,0,1
543,2060,W Center & Westwood Ln SW,,41.23404,-96.093377,0,1
7218,3070,W Center & 114th SW,,41.2340651557057,-96.0914733220761,0,1
3419,2062,W. Center & 108th SW,,41.2341656458438,-96.0817243118388,0,1
520,2063,W. Center & 107th SW,,41.2341970063182,-96.0794866272257,0,1
8752,2064,W. Center & 105th Ave SW,,41.2341984731004,-96.0773933782533,0,1
450,2065,W. Center & 105th SW,,41.2342,-96.075826,0,1
1412,2066,W. Center & 102nd SE,,41.2342034692498,-96.0719594052697,0,1
7153,2067,W. Center & 100th SW,,41.2342182743249,-96.0697863729104,0,1
3161,2068,W. Center & 99th Ave SW,,41.23422,-96.067813,0,1
6641,2069,W. Center & 97th SW,,41.2341292770729,-96.0646036140454,0,1
1416,2070,W. Center & 96th SE,,41.2337626298422,-96.0621611391679,0,1
509,2071,W. Center & Paddock SW,,41.2334400948454,-96.058315686598,0,1
8753,2072,W. Center & Big Papio Trail SW,,41.2338287298255,-96.0560166156672,0,1
8754,2073,W. Center & Big Papio Trail SE,,41.2341291505618,-96.0543189191011,0,1
527,2074,W. Center & 88th SW,,41.2341956387516,-96.0512203973992,0,1
6631,2075,W. Center & 87th SW,,41.23421,-96.048728,0,1
8543,2076,W. Center & Canfields Plz SW,,41.23422,-96.045826,0,1
1894,2975,W. Center & 84th SW,,41.23422,-96.043432,0,1
8756,2078,W. Center & 82nd Ave SW,,41.23423,-96.040894,0,1
1898,2079,W. Center & 80th Ave SW,,41.23423,-96.039102,0,1
8757,2080,W. Center & 80th SE,,41.2342490559838,-96.0363717894523,0,1
1301,2081,78th & W. Center NE,,41.2351612927337,-96.0335368761246,0,1
8758,2082,78th & Mercy Rd SE,,41.2375036049743,-96.0335140278492,0,1
1334,2083,Mercy Rd Entrance SE,,41.23785,-96.031533,0,1
1351,2928,Mercy Rd & 75th SE,,41.2378547559494,-96.0282662949328,0,1
9263,1848,Vinton & Hanscom Blvd SW,,41.22948,-95.957734,0,1
9264,1849,Vinton & 25th SE,,41.22946,-95.948076,0,1
2624,2966,Vinton & 24th SE,,41.2294164853503,-95.9463915898089,0,1
2882,1851,Vinton & 21st SE,,41.22939,-95.94411,0,1
2879,1852,Vinton & 20th SE,,41.2308718344828,-95.9421228137931,0,1
2623,1853,Vinton & 19th SW,,41.2320169082353,-95.9412068870588,0,1
2577,1854,Vinton & Elm NW,,41.233051534282,-95.9403956326003,0,1
2595,1855,Vinton & 17th SW,,41.233837207142,-95.9388656211762,0,1
2867,1856,16th & Vinton NE,,41.2347258483751,-95.9373569025271,0,1
3154,1857,16th & Castelar SE,,41.2368622216063,-95.9373212963066,0,1
2591,1858,16th & Martha SE,,41.2380854703442,-95.9373378979741,0,1
9523,1859,16th & Dorcas SE,,41.239353,-95.93734,0,1
2846,1860,16th & Center SE,,41.2413393855004,-95.9373204297831,0,1
2840,1861,16th & Pine NE,,41.244508,-95.9373,0,1
2578,1862,16th & William SE,,41.245512,-95.9373,0,1
2755,1863,16th & Pierce SE,,41.2476426704816,-95.9372665698309,0,1
3994,1005,15th & Dodge St SE,,41.2594016940511,-95.9357961501416,0,1
9227,3691,118th & Q St NE,,41.205951,-96.098416,0,1
9781,3693,118th & O St NE,,41.2084097195122,-96.0981114756097,0,1
3610,2314,120th & M St SE,,41.2105000000001,-96.10065,0,1
6176,2935,I St & 120th SE,,41.21619,-96.099793,0,1
8780,2316,116th & I St SW,,41.2161982045375,-96.0961734331629,0,1
282,2317,112th & I St SW,,41.2162320968246,-96.0864754888079,0,1
109,2318,110th & I St SW,,41.216222545853,-96.084602589677,0,1
9202,2319,110th & J St SE,,41.2148762105398,-96.0842759113858,0,1
4932,2320,108th & J St SW,,41.213564,-96.08156,0,1
389,2321,108th & M St NW,,41.2113786013015,-96.0815141375271,0,1
8781,2322,108th & John Galt Blvd SW,,41.2096598405546,-96.0814358266898,0,1
286,2323,108th & O St NW,,41.209053,-96.08142,0,1
7825,2324,"108th & Q St (Bag N' Save) MB",,41.207113,-96.08142,0,1
266,2325,108th & Q St SE,,41.2053307858546,-96.0805345422397,0,1
148,2326,107th Ave & Q St SE,,41.20536,-96.078902,0,1
8782,2834,107th & Q St SE,,41.20535,-96.076524,0,1
8783,2835,105th & Q St SW,,41.20535,-96.0739,0,1
8784,2836,101st Plz & Q St SE,,41.20535,-96.070481,0,1
9633,2837,"99th & ""Q"" Street SW",,41.20535,-96.06792,0,1
94,2838,97th (Hy Vee Exit) & Q St SW,,41.2053475070138,-96.06458818034,0,1
7358,3079,96th & Q St SW,,41.20534,-96.062421,0,1
5722,2764,94th & Q St SW,,41.20535,-96.058645,0,1
125,2765,93rd & Q St SW,,41.20535,-96.05645,0,1
131,2766,91st & Q St SE,,41.20535,-96.054387,0,1
1228,2767,89th & Q St SE,,41.20535,-96.050306,0,1
9272,2768,87th & Q St SW,,41.2053406764638,-96.0483671168731,0,1
4283,2769,86th & Q St SW,,41.2053308297243,-96.046289436989,0,1
1335,2770,84th & Lakeview Dr SE,,41.208749,-96.04299,0,1
1340,2771,84th & L St NE,,41.2130535198094,-96.0430765340515,0,1
1346,2772,84th & J St SE,,41.2151858525922,-96.0430948963148,0,1
8788,2773,84th & H St SE,,41.217367,-96.04311,0,1
9444,2961,84th & F St SE,,41.218855,-96.04312,0,1
1878,2839,84th & Papillion Pkwy SE,,41.226092,-96.04304,0,1
2062,2840,84th & Grover NE,,41.2283767898816,-96.0431142452246,0,1
1884,2841,84th & Hascal St SE,,41.230036,-96.04312,0,1
1890,2842,84th & Spring SE,,41.2312577822931,-96.0431122365936,0,1
1892,2843,84th & Tangier Way SE,,41.232234,-96.04311,0,1
8790,3080,84th & W Center SE,,41.233886,-96.04308,0,1
6705,3688,Farnam St & 18th NE,,41.257587,-95.939606,0,1
589,1297,Douglas & 17th SW,,41.25864,-95.938633,0,1
4571,4571,35th & Broadway SW,,41.26194,-95.9020500573566,0,1
4510,4510,32nd & Broadway SW,,41.26197,-95.896429,0,1
3708,3708,30th & Broadway SW,,41.26196,-95.892432,0,1
4139,4139,28th & Broadway SW,,41.26197,-95.889043,0,1
4136,1108,26th & Broadway SW,,41.26196,-95.884352,0,1
9095,1158,24th & Broadway SW,,41.26193,-95.879546,0,1
7350,1124,23rd & Broadway SW,,41.2619298631851,-95.8783819404304,0,1
9524,1128,21st & Broadway SW,,41.26191,-95.875462,0,1
3399,1130,20th & Broadway SW,,41.2619,-95.873465,0,1
5527,1136,18th & Broadway SW,,41.2618821242144,-95.8708904591497,0,1
5326,5326,16th & Broadway NE,,41.2618896196773,-95.8675472716294,0,1
8272,8272,16th & Avenue B SE,,41.2636293861315,-95.8675397131387,0,1
9525,1182,16th & Avenue D SE,,41.26527,-95.86751,0,1
8273,8273,16th & Avenue E SE,,41.266179,-95.86751,0,1
8274,3223,16th & Avenue G SE,,41.2680181419266,-95.8673896640384,0,1
8276,8276,9th & Avenue G SW,,41.2680250041013,-95.8562386089264,0,1
8277,8277,8th & Avenue E NW,,41.2660880925841,-95.8560297411431,0,1
8278,8278,8th & Washington Ave NW,,41.2638501315437,-95.8560090120805,0,1
1386,3221,8th & Broadway SE,,41.2618895639344,-95.8560190032787,0,1
9096,3196,6th & Broadway SW,,41.2612590419447,-95.8519938684461,0,1
7785,7785,4th & Broadway SW,,41.2608588057325,-95.8487860605096,0,1
9574,9574,2nd & East Broadway SW,,41.2621139716763,-95.846109634104,0,1
9575,9575,1st & East Broadway SE,,41.2634283427065,-95.8436094727592,0,1
9576,9576,East Broadway & Grace SW,,41.2643552808989,-95.8421435505618,0,1
9527,9527,East Broadway & Frank SW,,41.2659395,-95.8399205,0,1
9528,9528,E. Pierce & Ridge St (Methodist) SE,,41.268540304746,-95.8358909325562,0,1
9578,9578,East Pierce & Jennie Edmundson Hospital SW,,41.269455,-95.834945,0,1
9579,9579,East Pierce & Kenmore Ave SW,,41.2703717282333,-95.8329670497994,0,1
9580,9580,Kanesville Blvd & North Ave SE,,41.2712516583382,-95.830937606043,0,1
9079,3199,Kanesville Blvd & Railroad Ave SW,,41.27938,-95.80771,0,1
9033,3200,Iowa Western Community College,,41.2707014511041,-95.7984445741325,0,1
9102,9102,Valley View Dr & McPherson Ave NE,,41.2606868679244,-95.8052450377358,0,1
5457,5457,Bennett Ave & Bonham Ave NE,,41.25613,-95.81831,0,1
5401,3201,Bennett Ave & Franklin Ave NE,,41.2531518237752,-95.8201223007976,0,1
7146,3202,Mall of the Bluffs,,41.2497502456647,-95.8226451531792,0,1
5394,5394,Madison Ave & Bennett Ave NE,,41.2449088,-95.8277916,0,1
4541,3210,Madison Ave & Rosner SE,,41.2501897813115,-95.8315813544262,0,1
4455,4455,Madison Ave & Kappell Ave SE,,41.256553518815,-95.8366115068054,0,1
4544,4544,1st & Knepper SE,,41.2586428,-95.8400614,0,1
9581,9581,1st & Platner SE,,41.2613346118317,-95.8418902594116,0,1
3624,3624,1st & Pierce SE,,41.2627025771972,-95.8430177387174,0,1
9529,9529,2nd & East Broadway NE,,41.2622098326601,-95.845908609348,0,1
4516,4516,4th & Broadway NE,,41.2608708917198,-95.8487449681529,0,1
9103,3209,6th & Broadway NE,,41.2612347044804,-95.8518381086749,0,1
9034,2988,8th & Broadway NE,,41.26189,-95.85602,0,1
8265,8265,8th & Mynster SE,,41.26312,-95.85601,0,1
8266,8266,8th & Avenue E SE,,41.2660838771844,-95.856029649504,0,1
8267,8267,9th & Avenue G NE,,41.2681426588235,-95.8573190352941,0,1
9530,3208,15th & Avenue G NE,,41.26799,-95.865909,0,1
8270,8270,16th & Avenue E NW,,41.266206,-95.86751,0,1
9531,3207,16th & Avenue D SW,,41.265261,-95.86751,0,1
8271,8271,16th & Avenue B NW,,41.2636648766038,-95.8675394471866,0,1
5327,5327,16th & Broadway NW,,41.2618896196773,-95.8675472716294,0,1
186,186,18th & Broadway NE,,41.26188,-95.87078,0,1
4507,3206,20th & Broadway NE,,41.26189,-95.872169,0,1
3718,3205,23rd & Broadway NE,,41.26192845033,-95.8781954435581,0,1
9098,9098,24th & Broadway NE,,41.26193,-95.879448,0,1
9099,3204,26th & Broadway NE,,41.26196,-95.884221,0,1
3712,3712,28th & Broadway NE,,41.26197,-95.888887,0,1
9532,9532,30th & Broadway NW,,41.26196,-95.89247,0,1
3704,3704,32nd & Broadway NE,,41.26197,-95.896238,0,1
881,881,35th & Broadway NE,,41.26194,-95.901977,0,1
9100,9100,36th & Broadway NE,,41.2619316161052,-95.9045539437961,0,1
9533,2124,11th & Dodge NE,,41.25968,-95.930506,0,1
6444,6444,17th & Farnam NE,,41.25757,-95.938365,0,1
9436,2934,L St & 42nd NW,,41.2126,-95.977403,0,1
2519,2605,L St & 45th NE,,41.212570311038,-95.9811217891035,0,1
2915,2606,L St & 46th Ave NE,,41.21256,-95.983373,0,1
4972,2607,L St & 48th NE,,41.2125619573295,-95.9858575416546,0,1
1378,2608,L St & 49th NE,,41.2125233214804,-95.9881743171263,0,1
1609,2609,L St & 50th NW,,41.21252,-95.991172,0,1
3741,2610,L St & 51st NE,,41.2125128777101,-95.9933982723537,0,1
2523,2611,L St & 52nd NE,,41.21252,-95.995379,0,1
1361,2612,L St & 54th NW,,41.21257,-95.998138,0,1
2515,2613,L St & 56th Plz NE,,41.21256,-96.000868,0,1
2489,2614,60th & L St SW,,41.211772,-96.00465,0,1
846,2615,60th & N St NW,,41.2101356222211,-96.0046617335979,0,1
2499,2616,60th & O St NW,,41.208544,-96.00466,0,1
3659,2617,60th & Q St NW,,41.205414,-96.00466,0,1
8721,2619,Q St & Warhorse Casino NE,,41.20523,-96.009252,0,1
9470,1971,Q St & Keystone Trail NE,,41.2052497844618,-96.0158130577243,0,1
7002,2621,Q St & 72nd St NE,,41.20526,-96.022754,0,1
8724,2623,72nd & M St SE,,41.210563018868,-96.0237564339623,0,1
1366,2624,72nd & J St SE,,41.214964,-96.02381,0,1
7456,2625,72nd & F St SE,,41.2195976838857,-96.023849380108,0,1
9189,2626,72nd & Grover St  NE,,41.2279237840257,-96.0238876626672,0,1
1972,2627,72nd & Spring SE,,41.2305579628182,-96.0238715460179,0,1
1983,3217,Spring St & 70th SW,,41.230650479795,-96.0216227774564,0,1
1994,1294,Spring St & 68th Ct SE,,41.23064,-96.018764,0,1
8872,3218,67th & Spring NE,,41.231937740135,-96.0167146135798,0,1
9641,1346,67th & UNO Lot SE,,41.2340459614664,-96.0168431420926,0,1
4872,4872,16th & Broadway SE,,41.26189,-95.867359,0,1
9031,9031,12th & Broadway SW,,41.26192,-95.861906,0,1
9032,9032,10th & Broadway SW,,41.26191,-95.859006,0,1
9542,3225,7th St & 5th Ave NW,,41.257091,-95.85473,0,1
9543,2979,30th Ave & Manawa Center Dr,,41.2304306077348,-95.8477155469613,0,1
9084,2980,32nd Ave & Manawa Centre Dr SW,,41.227785,-95.84749,0,1
9080,2981,35th Ave & Power Dr SW,,41.2252151687541,-95.8447876704021,0,1
9081,2982,35th Ave & Metro Dr SW,,41.2246216964981,-95.8391651439689,0,1
9097,2983,Metro Dr Midblock,,41.2225239722773,-95.8384431227723,0,1
7754,2984,Metro Crossing Target,,41.22099156956,-95.837669648038,0,1
9082,2985,9th & Veterans Memorial Hwy NE,,41.2199593784031,-95.8576651134636,0,1
9044,3211,Marketplace,,41.228464,-95.87918,0,1
9582,9582,24th & Mid-America NW,,41.2349046548673,-95.8806718230089,0,1
9085,3212,Mid America Dr & Horseshoe Casino NE,,41.2332909512015,-95.8868394624769,0,1
9546,2973,23rd Ave & Bass Pro Dr SE,,41.2403299987063,-95.8941500000254,0,1
9547,2974,23rd Ave & Horseshoe Casino SE,,41.2401895991886,-95.8875227549695,0,1
9583,9583,23rd Ave & 19th SW,,41.2394605334185,-95.8720876219636,0,1
5258,5258,23rd Ave & 16th SW,,41.2394,-95.867806,0,1
5262,5262,23rd Ave & 13th SW,,41.23937,-95.86342,0,1
5161,5161,23rd Ave & 10th SW,,41.23936,-95.859145,0,1
8299,8299,23rd Ave & 7th SE,,41.239348858283,-95.854802443056,0,1
9585,9585,5th Ave & 6th St NW,,41.2570636291244,-95.8536214676487,0,1
9587,9587,8th & Willow Ave SE,,41.259035,-95.85608,0,1
9548,3224,1st Ave & 8th St NE,,41.2605488470563,-95.8560502350327,0,1
9588,9588,8th & Mill SE,,41.264501,-95.85599,0,1
9634,2959,84th & Center St. SW 2,,41.2335377949007,-96.0430833858357,0,1
1221,2713,84th & Tangier Way NW,,41.2325223634489,-96.0431069917398,0,1
1217,2714,84th & Spring NW,,41.231569,-96.04311,0,1
8544,2715,84th & Frederick NW,,41.23005,-96.04312,0,1
8763,2716,84th & Grover NW,,41.2281473245175,-96.0431109277279,0,1
1164,2717,84th & Papillion Pkwy NW,,41.2265877700538,-96.0432150428836,0,1
4396,2938,84th & F St SW,,41.219331,-96.04312,0,1
1350,2720,84th & I St NW,,41.216793,-96.04311,0,1
1296,2721,84th & K St NW,,41.214664,-96.04309,0,1
274,2939,84th & L St SW,,41.2119866224389,-96.0431470819512,0,1
269,2723,84th & Lakeview Dr NW,,41.209091,-96.04311,0,1
4944,2960,86th Parkway & Q St NE,,41.20533,-96.044795,0,1
9258,2726,87th & Q St NE,,41.20534,-96.047748,0,1
9259,2727,89th & Q St NE,,41.20535,-96.050752,0,1
1219,2728,91st & Q St NE,,41.20535,-96.054392,0,1
1215,2729,93rd & Q St NE,,41.20535,-96.055899,0,1
8766,2730,94th & Q St NE,,41.2053452832466,-96.059026588973,0,1
1156,2940,96th & Q St NE,,41.2053440207896,-96.0617125655187,0,1
1162,2732,"St. Gerald's Park & Ride Lot NW",,41.20534,-96.063253,0,1
4329,2733,98th Plz & Q St NE,,41.20535,-96.065413,0,1
4338,2734,99th & Q St NE,,41.20535,-96.067428,0,1
4352,2735,P St & Q St NE,,41.20535,-96.070039,0,1
1067,2736,104th & Q St NE,,41.20535,-96.074259,0,1
7206,2737,107th (South) & Q St NE,,41.20535,-96.076878,0,1
277,2738,107th (North) & Q St NE,,41.2053574270921,-96.0784540638194,0,1
9357,2739,108th & Q St NE,,41.2053534168539,-96.0800297269663,0,1
263,2740,108th & Q St NW,,41.20539,-96.082046,0,1
9226,2308,111th & Q St NE,,41.20539,-96.084927,0,1
243,2309,Q St & John Galt Blvd NE,,41.2053816964674,-96.0874179415717,0,1
9260,2310,114th & Q St NE,,41.20538,-96.090219,0,1
9041,9041,4th & Broadway SE,,41.2602867707317,-95.8488576634146,0,1
8836,2412,114th & W Dodge Rd SW,,41.2626603898088,-96.0909860853503,0,1
8837,2413,Davenport & 114th SE,,41.2602718909871,-96.090218097854,0,1
8838,2414,Davenport & Atrium Plz SE,,41.2608318412619,-96.0878205998999,0,1
8839,2415,Davenport & West Dodge Frontage Rd S SE,,41.2619224159292,-96.0872572389381,0,1
8840,2416,West Dodge Frontage Rd  S & Marriott SW,,41.2620165427271,-96.0838281050059,0,1
8551,3651,Mill ValleyRd & 109th Ct NW,,41.2671427044728,-96.0848276118211,0,1
9780,3652,Mil Valley Rd & North Mill Rd SE,,41.2690182653587,-96.0861563242127,0,1
6333,3689,North Mill Rd & 108th Plz SW,,41.2691864184529,-96.0824240754893,0,1
6279,2420,108th & 107th Plz SE,,41.2713584268549,-96.0813610822588,0,1
793,2421,108th & Charles Plz SE,,41.273360409836,-96.0813645081967,0,1
6330,2422,108th & Decatur SE,,41.275926,-96.08131,0,1
2027,2423,108th & Blondo NE,,41.278531,-96.08127,0,1
8630,2424,108th & Burdette NE,,41.2797390090377,-96.0812737876186,0,1
8631,2425,108th & Lake SE,,41.281342,-96.08129,0,1
8632,2426,108th & Corby SE,,41.2840061021907,-96.0813142189781,0,1
7258,2427,108th & Cottonwood Ln SE,,41.2859071244345,-96.0813493868778,0,1
1035,2428,108th & Bedford Ave SE,,41.2884947857356,-96.0814754273403,0,1
9485,2429,108th & Emmet SE,,41.28964,-96.08145,0,1
1054,2430,108th & Manderson Plz NE,,41.2930577847601,-96.0814371979917,0,1
1061,2431,108th & Old Maple Rd SE,,41.294186,-96.08144,0,1
1074,2432,108th & Boyd SE,,41.2975225366663,-96.0814417398366,0,1
9488,2433,108th & Hilltop SE,,41.299651,-96.08144,0,1
1075,2434,108th & Fowler SE,,41.3011451431412,-96.0814265587365,0,1
1094,2435,108th & Browne SE,,41.3047058776046,-96.0814223306632,0,1
1047,3078,108th & Fort NE,,41.30767,-96.08141,0,1
3193,2436,108th & Ellison Plz SE,,41.30931263053,-96.0814481578318,0,1
5578,2437,108th & Hartman Ave NE,,41.31098,-96.08144,0,1
7266,2438,108th & Military Rd SE,,41.313619,-96.08143,0,1
9707,3342,108th & Reddick/Military SE,,41.3173886294417,-96.0814391878173,0,1
9705,3345,108th & Ida St SE,,41.3210020815277,-96.0814347171974,0,1
9783,9783,103rd & 102nd Cir SE,,41.3228141417452,-96.0736307472347,0,0
7382,2377,99th & Redick Ave SW,,41.31758,-96.0663,0,1
8536,2378,99th & Walmart Entrance NW,,41.316213,-96.06639,0,1
8578,2443,99th & Kansas Plz SW,,41.312872,-96.06705,0,1
9492,2444,99th & Hartman Ave NW,,41.3096664332716,-96.0670164698706,0,1
9493,2445,99th & Masters Elementary NW,,41.308561,-96.06699,0,1
8431,2446,Fort & 99th SE,,41.3066310540862,-96.0663688630015,0,1
1638,2447,Fort & 97th SW,,41.3066896135195,-96.0640214503995,0,1
5649,2448,Fort & N Oaks Blvd SE,,41.30669,-96.061332,0,1
1829,2449,Fort & 93rd SW,,41.30669,-96.05782,0,1
1130,2450,Fort 91st Ave SW,,41.3066991959019,-96.0550642409288,0,1
8636,3077,Fort & 90th SW,,41.3066848985405,-96.0531114773984,0,1
8637,2451,Fort & 88th SW,,41.3067,-96.050314,0,1
3812,2452,Templeton Dr & Fort SW,,41.3059374818422,-96.0473222977964,0,1
9494,2453,Templeton Dr & Browne NW,,41.304302749781,-96.0468671018978,0,1
3850,2454,Templeton Dr & Grand Ave SW,,41.3035437480106,-96.0460963607427,0,1
3822,2455,Templeton Dr & 84/85th SW,,41.302342867963,-96.0435405956263,0,1
3813,2456,Templeton Dr & 83rd SW,,41.3018057131387,-96.0414213861314,0,1
3806,2457,Templeton Dr & 81st SW,,41.3017729894811,-96.0390078741264,0,1
3809,2458,Templeton Dr & 80th SW,,41.3017439158567,-96.0367049514024,0,1
9665,2459,Templeton Dr & Military SW,,41.3024460021882,-96.033721761488,0,1
9495,2460,Military Ave & Aurora Dr SW,,41.3007543372973,-96.0300419362162,0,1
1697,2461,Military Ave & Keystone Dr SE,,41.29955,-96.0277,0,1
8588,2462,Military Ave & Skyline Manor MB,,41.2987929425399,-96.0262270392756,0,1
9496,2464,Military Ave & 72nd SE,,41.2971894,-96.0231388,0,1
9497,2465,Military Ave & 70th SW,,41.2963617186711,-96.0215727783852,0,1
9498,2466,Military Ave & 69th SW,,41.2952834621255,-96.0193634626908,0,1
8638,2467,Military Ave & 67th SW,,41.2938548288806,-96.0167311078796,0,1
9499,2468,Military Ave & 66th SW,,41.292483207692,-96.0145747684778,0,1
7877,2469,Military Ave & Evans SW,,41.2916363557484,-96.0131370759219,0,1
9500,2470,Military Ave & Pinkney NW,,41.2906643992838,-96.0114054467323,0,1
9501,2471,Military Ave & Bedford Ave SW,,41.2892793973698,-96.0105633733824,0,1
9213,2472,NW Radial & 61st SW,,41.2868136081331,-96.0073276229205,0,1
9214,3076,NW Radial & 60th SW,,41.28668521611,-96.0048809508841,0,1
9249,2473,NW Radial & 58th SW,,41.2852767413793,-96.0023723965517,0,1
9184,2474,52nd & Benson High SE,,41.286166,-95.99509,0,1
5006,2475,Bedford Ave & 52nd SE,,41.2886209215768,-95.9947382809129,0,1
8852,2476,Bedford Ave & 51st SE,,41.28867,-95.992459,0,1
4062,2477,Bedford Ave & 50th SW,,41.2886102193187,-95.9904886220911,0,1
4067,2478,Bedford Ave & 48th SE,,41.2886771134021,-95.9873264948454,0,1
2725,2479,Bedford Ave & 48th SW,,41.2886337098606,-95.9860132338668,0,1
8111,2480,Bedford Ave & Fontenelle Blvd SW,,41.2886862110745,-95.9832723464232,0,1
2833,3074,Bedford Ave & 45th SW,,41.2887,-95.980848,0,1
4146,2481,Bedford Ave & 41st SW,,41.28868,-95.974684,0,1
3593,3072,Bedford Ave & 40th SW,,41.28867,-95.97249,0,1
8112,2482,Bedford Ave & 38th SW,,41.28867,-95.969866,0,1
8114,2483,Bedford Ave & 36th Ave SW,,41.2886690761527,-95.9674245570657,0,1
8853,2484,Bedford Ave & Malcolm X Ave SE,,41.2886604541351,-95.9636155037845,0,1
9569,2485,Bedford Ave & 33rd SE,,41.2886801768149,-95.9612261499065,0,1
8116,2486,John Creighton Blvd & Bedford NE,,41.2889675400722,-95.9588200043321,0,1
8117,2487,John Creighton Blvd & Pinkney SE,,41.2903472676924,-95.9590731815385,0,1
8118,2488,John Creighton Blvd & Pratt NE,,41.292435383687,-95.9590795246952,0,1
8119,2489,John Creighton Blvd & Spaulding NE,,41.2942726340652,-95.9590533218699,0,1
8854,2490,John Creighton Blvd & Sprague SE,,41.2954443002027,-95.9590313387424,0,1
9166,1509,97th Plz & Nicholas SW,,41.2694894232715,-96.0649654080944,0,1
4175,1510,96th & Nicholas SW,,41.2695633773779,-96.0623462015424,0,1
8571,1511,96th & Access Rd (Cuming) NW,,41.2684814106815,-96.062166252309,0,1
5721,1512,95th Plz & Burt SW,,41.2669521583163,-96.0605712184747,0,1
6591,1003,93rd & Burt SW,,41.267,-96.057502,0,1
8572,1514,91st Plz & Burt SE,,41.26698,-96.054165,0,1
4164,1072,90th & Burt NE,,41.267574,-96.05249,0,1
1792,1517,90th & Western Ave SE,,41.270447,-96.05249,0,1
4209,1518,90th & Charles SE,,41.273154,-96.0525,0,1
1836,1519,90th & Franklin SE,,41.274951,-96.05251,0,1
4212,1520,90th & Decatur NE,,41.27669,-96.05252,0,1
9645,1521,90th & Blondo SE,,41.277524,-96.05253,0,1
1850,1522,90th & Grant NE,,41.2799414321273,-96.0525470746606,0,1
1854,1523,90th & Ohio/Lake SE,,41.281711,-96.05254,0,1
1856,1524,90th & Miami SE,,41.283161,-96.05254,0,1
1863,3089,90th & Maple SE,,41.284819,-96.05253,0,1
8575,1526,90th & Shopping Center Exit SE,,41.286729,-96.05253,0,1
3839,1527,90th & Bedford SE,,41.288670064,-96.052583648,0,1
3831,1528,90th & Maplewood Blvd SE,,41.2910050317967,-96.0530516025437,0,1
4129,1529,90th & Spaulding SE,,41.2933867241978,-96.0528026123157,0,1
3844,1530,90th & Sprague SE,,41.2951466583545,-96.0525321670823,0,1
3846,1531,90th & Boyd/Taylor SE,,41.298177,-96.05254,0,1
4120,1532,90th & Tomahawk Blvd NE,,41.3002414053171,-96.0525486945665,0,1
4132,1533,90th & Larimore Ave SE,,41.302039,-96.05254,0,1
5601,1534,90th & Browne NE,,41.3043328326848,-96.0525473229572,0,1
4099,3127,90th & Fort NE,,41.307695,-96.05255,0,1
8581,1536,90th & Plaza Northt SE,,41.309305,-96.05254,0,1
8582,1537,89th & Military Rd SW,,41.3104910078864,-96.0512483990537,0,1
8583,3233,Blair High Rd & Military Rd SW,,41.3107456,-96.0486988,0,1
5641,1538,Crown Point & Wenninghoff Rd SW,,41.31089232,-96.04611576,0,1
9424,1539,Crown Point & NW High W Entrance SE,,41.3125176964856,-96.0427434121406,0,1
8584,1540,Crown Point & NW High E Entrance SW,,41.31273,-96.039045,0,1
5595,1541,79th & Crown Point Ave SW,,41.31274,-96.036252,0,1
3909,3353,78th & Crown Point Ave SW,,41.312367,-96.03337,0,1
8586,3354,78th & Jaynes NW,,41.3081117893607,-96.0333891509941,0,1
1092,3355,78th & Military Ave SE,,41.3021763076923,-96.0328994615384,0,1
1703,1703c,Military Ave & Aurora Dr SW,,41.3007571221622,-96.030047307027,0,1
4581,1193,72nd & Home Depot Exit SE,,41.3007595622094,-96.0237699084404,0,1
8589,1194,72nd & Marian High Rd NE,,41.303323,-96.02378,0,1
3956,1195,72nd & Hartman Ave NE,,41.31087,-96.0238,0,1
3905,1544,72nd & Crown Point Ave NE,,41.313409578268,-96.0237763351374,0,1
8590,1545,72nd & Nebraska Plz SE,,41.3145963472057,-96.023754235434,0,1
3898,1546,72nd & Redick Ave SE,,41.3171307039411,-96.0238073876172,0,1
956,1547,Newport Ave & Immanuel Hospital SE,,41.3201405503062,-96.0203783573966,0,1
9425,1548,67th & Sorensen Pkwy SW,,41.3176033963303,-96.015862078899,0,1
3878,1549,66th & Sorensen Pkwy SW,,41.31756,-96.012718,0,1
8593,1550,Roncalli High & Sorensen Pkwy SW,,41.31756,-96.009893,0,1
5099,1551,62nd Ave & Sorensen Pkwy SW,,41.31756,-96.007797,0,1
3998,1552,60th & Sorensen Pkwy SW,,41.31757,-96.005094,0,1
1608,1553,56th & Sorensen Pkwy SW,,41.3176069729392,-96.0004083259784,0,1
4036,1554,52nd & Curtis/Sorensen Pkwy SE,,41.31583,-95.993641,0,1
4101,1078,51st & Curtis Ave SW,,41.3157638021785,-95.9926839008692,0,1
3851,1555,49th Ave & Curtis Ave SE,,41.3157599800459,-95.9894162057236,0,1
3837,1556,49th & Curtis Ave SW,,41.3157358196989,-95.9880881435421,0,1
5634,1557,48th & Curtis Ave SW,,41.315759699609,-95.9855425293281,0,1
3843,1558,46th Ave & Curtis Ave SW,,41.315748416571,-95.9827445063117,0,1
8594,1559,45th & Curtis Ave SE,,41.3157382329121,-95.980495741815,0,1
8595,1560,44th & Curtis Ave SE,,41.3157011278255,-95.978101277462,0,1
8596,3125,42nd & Curtis Ave SW,,41.3152925852046,-95.9757849128138,0,1
4221,1562,42nd & Kansas Ave NW,,41.3141032730073,-95.9757818834022,0,1
4218,1563,42nd & Laurel Ave NW,,41.3122510529229,-95.975771866525,0,1
9426,1564,42nd & Himebaugh Ave NW,,41.311384,-95.97577,0,1
9427,1568,42nd & Fort SW,,41.306635,-95.97577,0,1
1791,1569,42nd & Browne NW,,41.3050873871734,-95.9757757719715,0,1
4096,3124,42nd & Grand Ave NW,,41.3034025691968,-95.9757756785249,0,1
1776,1571,42nd & Fowler Ave NW,,41.3016265464976,-95.9757625476058,0,1
841,3123,42nd & Ames Ave NW,,41.2999744047584,-95.9757648098141,0,1
3064,1299,Douglas & 14th SW,,41.2586409907557,-95.934612761263,0,1
7956,3187,Village Pointe Park & Ride,,41.260706,-96.18876,0,1
9443,2703,Chicago & 180th NE,,41.26082,-96.196039,0,1
9448,3643,FNB Pkwy & 137th NW,,41.266173616739,-96.1303277340703,0,1
9571,3186,FNB Pkwy & 143 NE,,41.2650473155815,-96.1364575602183,0,1
9628,3273,Westroads TC Bay 5,,41.2687692114754,-96.0710612737705,0,1
3165,1696,Sprague & 30th SE,,41.2958919210416,-95.956277448131,0,1
7541,1697,Sprague & 28th Ave SW,,41.29590858935,-95.9544294034456,0,1
7540,1698,Sprague & 27th SE,,41.2959213429508,-95.950948812459,0,1
7537,1699,Sprague & 25th Ave SW,,41.29593,-95.949084,0,1
7535,3135,Sprague & 24th SW,,41.2959216960415,-95.9471446922714,0,1
7533,1159,Sprague & 22nd SW,,41.2959423735863,-95.9447630726012,0,1
7531,3133,Sprague & Florence Blvd SW,,41.29596,-95.942522,0,1
7529,1703,Sprague & 18th SW,,41.29597,-95.940072,0,1
7527,1704,Sprague & 16th SW,,41.29597,-95.937809,0,1
7525,1705,16th & Cornish Blvd SE,,41.297667,-95.93734,0,1
7524,1706,16th & Ames SE,,41.299153,-95.93734,0,1
7523,1707,16th & Fowler Ave SE,,41.3013491512611,-95.9373302269374,0,1
7522,1708,16th & Carter Blvd SE,,41.303367,-95.93733,0,1
7521,1709,16th & Browne NE,,41.305283135569,-95.9373442185946,0,1
6214,1710,16th & Fort SE,,41.306551,-95.93734,0,1
4442,1711,16th & Jaynes SE,,41.3079817727457,-95.9373296144196,0,1
4445,1712,16th & Ellison Ave SE,,41.3092534418383,-95.9373023010575,0,1
5487,1713,16th & Storz Exp NE,,41.312378,-95.93731,0,1
9394,1714,16th & 6300 Block NE,,41.3148086854162,-95.9373077790035,0,1
5486,1715,16th & John J Pershing Dr SE,,41.317288,-95.9373,0,1
8793,1716,John Pershing Dr & 14th SW,,41.3175089977869,-95.934708687959,0,1
8794,1717,John Pershing Dr & 12th SW,,41.3175,-95.932864,0,1
5871,1718,John Pershing Dr & 9th SW,,41.3173749252815,-95.9282581709314,0,1
8795,1719,Abbott Dr & Crown Point Ave SW,,41.3160545660377,-95.9233759811321,0,1
7517,1720,Abbott Dr & 4th Cir SW,,41.3152541668697,-95.920574773447,0,1
9479,1721,Abbott Dr & Lindberg SW,,41.3138330290288,-95.9160888896478,0,1
7161,1722,Abbott Dr & East Fort NW,,41.3070816469105,-95.9086871916772,0,1
7497,1723,Abbott Dr & Carter Blvd NW,,41.3048085555944,-95.9065488161983,0,1
7495,1725,Abbott Dr & Pratt Ct NW,,41.2926738674033,-95.901803480663,0,1
7494,1726,Nakoma Ave & Abbott Dr SW,,41.2886879399239,-95.9029426954017,0,1
8797,1727,21th & East Locust NW,,41.2851464036412,-95.9036139742523,0,1
9395,1728,East Locust & Abbott Dr NE,,41.2849136829003,-95.9059303625368,0,1
7487,1729,Abbott Dr & Ave H NW,,41.28157,-95.91075,0,1
8798,1730,Abbott Dr & Owen Pkwy NW,,41.277588,-95.914732,0,1
9674,3370,Riverfront Dr & Gallup Campus SW,,41.270257594785,-95.9250338063664,0,1
9673,3369,Riverfront Dr & Bob Kerry Pedestrian Bridge NW,,41.266218,-95.925517,0,1
8661,2566,Riverfront Dr & Luminarium SW,,41.2627168560138,-95.9250487162262,0,1
1770,3690,Douglas St & 8th NE,,41.2585807110297,-95.9262914814358,0,1
8664,2569,10th & Capitol Ave NE,,41.2606155298227,-95.9288526808168,0,1
8665,3686,Capitol Ave & 12th NE,,41.26062,-95.93176,0,1
5525,3698,6th St & 1st Ave SE,,41.2596883807184,-95.8524267890697,0,0
1801,3083,Dodge & 33rd NE,,41.2597616008922,-95.9614587268402,0,1
3415,3085,Dodge & 44th NE,,41.25967,-95.97861,0,1
9740,1252,Dodge & 66th NW,,41.25965,-96.013478,0,1
8480,3086,Dodge & 71st NE,,41.2596229348442,-96.022476736544,0,1
5203,3666,Blondo & 88th St St,,41.2778383319095,-96.0485619072894,0,1
9010,3088,Blondo & 90th NE,,41.2777842103921,-96.0522942180427,0,1
7966,2162,Blondo & 96th NW,,41.2778152292741,-96.0631012784609,0,1
9160,2165,Blondo & 98th Ave NE,,41.2778462782835,-96.0659192535761,0,1
9159,2169,Blondo & 100th NE,,41.2778433474919,-96.0680217758863,0,1
9676,3181,Blondo & 102nd NW,,41.2778225356747,-96.0726581449168,0,1
9157,2188,Blondo & 103rd Ave NW,,41.2778120120291,-96.074847479577,0,1
9156,2199,Blondo & 106th NE,,41.27781,-96.07869,0,1
9549,3182,Blondo & 108th NW,,41.27779,-96.082692,0,1
1544,1073,Blondo & 111th NE,,41.27779,-96.085007,0,1
6314,2211,Blondo & 112th Ct NE,,41.27777,-96.088573,0,1
6300,1871,Blondo & Papillion Pkwy NW,,41.2777939085319,-96.0919393351268,0,1
1441,1583,117th Ave & Blondo NE,,41.2785299041534,-96.0981063961661,0,1
1430,1575,117th Ave & Grant SE,,41.2798593087744,-96.0979903904889,0,1
9550,1573,117th Ave MB SE,,41.2815731557376,-96.0976702868852,0,1
1509,1572,Miami & 117th Ave NW,,41.2825318798283,-96.099205695279,0,1
9019,1570,Miami & 120th NE,,41.2821812761798,-96.100326470539,0,1
9551,1565,120th & Locust MB,,41.284797244256,-96.1006036056662,0,1
6317,1561,120th & Stonegate SE,,41.2864855590196,-96.100617545657,0,1
1022,1535,120th & Emmet SE,,41.29055,-96.1007,0,1
1029,1525,W Maple Rd & 114th Ave SW,,41.2901519173002,-96.0926741868115,0,1
9552,1515,W Maple Rd & Heflinger Park RD SE,,41.2887836152431,-96.0871474451969,0,1
8576,1516,Fort & 108th SE,,41.30662,-96.080399,0,1
1123,1513,Fort & 105th SW,,41.30662,-96.077851,0,1
3110,1506,Fort & 103rd SW,,41.3066266825138,-96.0741184311365,0,1
3819,1507,Fort & Parkview Dr SW,,41.30662,-96.067224,0,1
9020,1508,Park View Dr & Redman NW,,41.30455,-96.06647,0,1
9021,1488,Park View Dr & Grand NW,,41.302873,-96.06645,0,1
9022,1207,Park View Dr & Fowler NW,,41.3012038158695,-96.0653887829693,0,1
9023,1590,Park View Dr & Ames Ave NW,,41.2993390917809,-96.0649955219178,0,1
9696,3343,Taylor St & Terrace Dr NE,,41.2983604483604,-96.0671859803809,0,1
9025,1611,Terrace Dr & Sahler SW,,41.2962032352941,-96.0681870588235,0,1
9026,1616,Terrace Dr & Ruggles NW,,41.2950037882353,-96.0681149529412,0,1
9027,1621,Terrace Dr & Manderson NW,,41.2928892669247,-96.0678341844056,0,1
9553,1624,Terrace Dr & Evans NW,,41.2912170716936,-96.0673514371382,0,1
9029,1626,Terrace Dr & Maplewood NW,,41.2893296153846,-96.0654279230769,0,1
3786,1628,Maplewood Blvd & 95th SW,,41.2909777536132,-96.0628184542326,0,1
3824,1656,Maplewood Blvd & 93rd Ave SE,,41.29129,-96.058041,0,1
8573,3091,Blondo & 90th SE,,41.2778007295163,-96.051527171767,0,1
9742,3665,Blondo & 85th St SW,,41.27784,-96.04769,0,1
9573,3092,Blondo & 72nd SW,,41.2777956270822,-96.0242232520151,0,1
2279,3093,Dodge & 70th SW,,41.2596381212465,-96.0218389076488,0,1
3433,1275,Dodge & 66th SW,,41.25965,-96.013362,0,1
2337,3095,Dodge & 44th SW,,41.25967,-95.978832,0,1
1804,3644,Dodge & 34th SW,,41.259761664433,-95.9630880407295,0,1
7409,3372,Douglas St & Turner Blvd sw,,41.2588213783784,-95.9573482702703,0,1
1769,1293,Douglas & 26th Ave SW,,41.25876,-95.950936,0,1
7611,2946,Douglas & 25th SW,,41.2587339503396,-95.948481094866,0,1
2625,1295,Douglas & 24th SE,,41.2586828725069,-95.9452756531179,0,1
606,1296,Douglas & 18th SW,,41.25864,-95.939906,0,1
9761,3685,Douglas & 14th SE,,41.25864,-95.93425,0,1
3346,2948,Dodge &16th NE,,41.25966,-95.936905,0,1
5896,1232,Dodge & 20th NW,,41.25976,-95.942845,0,1
6369,2949,Dodge & 24th NE,,41.25977,-95.946613,0,1
309,1234,Dodge & 26th NW,,41.25978,-95.950684,0,1
5772,3084,Dodge & Turner Blvd NE,,41.25972,-95.95716,0,1
3830,1017,90th & Maplewood Blvd NW,,41.2912473739009,-96.0546513457083,0,1
3823,1011,93rd Ave & Maplewood Blvd NE,,41.29129,-96.058552,0,1
3785,1012,95th & Maplewood Blvd NE,,41.2915799455621,-96.0602342106509,0,1
9554,1013,Cottonwood Ln & Maplewood NW,,41.2909602697866,-96.0630399160358,0,1
3783,1022,Maplewood Blvd & Terrace Dr NE,,41.2894445075047,-96.0656500478424,0,1
9555,1036,Evans & Terrace Dr NE,,41.291150152887,-96.0673241413092,0,1
9011,1039,Manderson & Terrace Dr SE,,41.2927061721779,-96.0678330011403,0,1
9012,1047,Ruggles & Terrace Dr SE,,41.2948305689656,-96.0679816724138,0,1
9013,1058,Sahler & Terrace Dr NE,,41.2970485218274,-96.0679854944162,0,1
9695,3344,Terrace Dr & Taylor St SE,,41.2982780839204,-96.0673429041348,0,1
9014,1019,Park View Dr & Ames Ave NE,,41.2995705520548,-96.0650040945206,0,1
9558,1397,Park View Dr & Fowler NE,,41.3009636764706,-96.0651842058824,0,1
9016,1135,Park View Dr & Grand SE,,41.3026683490566,-96.0664429716981,0,1
9017,1134,Park View Dr & Redman SE,,41.3040228186587,-96.0664600722733,0,1
9018,3229,Park View Dr & Camden SE,,41.3057992141058,-96.066514488665,0,1
7830,1398,103rd & Fort NW,,41.30673,-96.074575,0,1
5576,1405,105th & Fort NE,,41.30672,-96.077329,0,1
1122,1409,106th & Fort NE,,41.30672,-96.079,0,1
1030,1410,W Maple Rd & Emmet NE,,41.2886995921331,-96.0859351661119,0,1
1028,1414,114th Ave & W Maple Rd NE,,41.2902021075862,-96.0921249710345,0,1
4532,1426,120th & Maple (Emmet) SW,,41.291064,-96.10069,0,1
658,1428,120th & Stonegate NW,,41.2869138990882,-96.1006242564369,0,1
9556,1434,120th & Locust MB2,,41.284234,-96.1006,0,1
6250,1435,120th & Miami SE,,41.2822049706786,-96.1001866729964,0,1
9557,1445,117th Ave & Miami (North Park) SE,,41.282922015544,-96.0984577409326,0,1
601,1459,117th Ave & Grant NW,,41.2801270754717,-96.097922264151,0,1
6236,1472,117th Ave & Blondo NW,,41.2789348407805,-96.0981063574837,0,1
1474,1874,Papillion Pkwy & Blondo SW,,41.2777,-96.092052,0,1
6476,2233,112th Ct & Blondo SW,,41.2777695312405,-96.0890979695215,0,1
6315,2230,111th & Blondo SW,,41.27779,-96.085785,0,1
6339,2223,110th & Blondo SW,,41.2777951893699,-96.0839504519503,0,1
1563,3179,108th & Blondo SE,,41.2778,-96.080744,0,1
1844,2133,106th & Blondo SW,,41.2778090773067,-96.0790584538653,0,1
1843,2132,103rd Ave & Blondo SW,,41.2778126062128,-96.0749205641771,0,1
8629,3180,102nd & Blondo SW,,41.2778339072089,-96.0720668251386,0,1
785,2776,100th & Blondo SW,,41.27785,-96.068964,0,1
1749,2154,98th Ave & Blondo SE,,41.2778388633484,-96.0654765773756,0,1
889,1343,96th & Blondo SW,,41.27781,-96.062434,0,1
4447,3069,120th & I St SW,,41.215498,-96.10089,0,1
6475,2691,120th & Anne SW,,41.2109778112276,-96.1008533034987,0,1
219,2664,120th & Ohern NW,,41.2081792680688,-96.1007216230821,0,1
216,2655,120th & P St NW,,41.2069417202647,-96.1006855913928,0,1
6414,2654,120th & Q St NW,,41.20554,-96.10065,0,1
4531,2628,Q St & 122nd NE,,41.2053439917724,-96.1021844442921,0,1
158,2603,Q St & Magnolia NE,,41.2052741782864,-96.104611698236,0,1
196,2604,Q St & 124th NE,,41.2052513857168,-96.1073198568132,0,1
134,2598,Q St & Oaks Ln NE,,41.2051824744997,-96.1120822440285,0,1
128,2593,Q St & 129th NE,,41.20518,-96.115512,0,1
8772,2557,Q St & Harry Andersen Ave NE,,41.2051593879176,-96.1174065182621,0,1
116,1772,Q St & 135th NE,,41.2051262913495,-96.1193009287197,0,1
115,1770,Q St & 136th NE,,41.2051700973872,-96.121362824228,0,1
96,1743,Q St & 136th NE,,41.2052062220641,-96.126439769395,0,1
7356,1736,Q St & 138th NE,,41.2051376458886,-96.1289367122016,0,1
70,1737,Q St & 144th NE,,41.20536,-96.137653,0,1
67,1738,Q St & Walnut Grove Dr NE,,41.20538,-96.140773,0,1
9006,2759,Q St & Millard South High NE,,41.20538,-96.145089,0,1
45,2775,Q St & Blackwell Dr NE,,41.2053680277325,-96.1499890293638,0,1
1097,2778,153rd & Weir Park & Ride NW,,41.2071811787296,-96.1536023530281,0,1
46,2779,Q St & Blackwell Dr SW,,41.2053223443558,-96.1504520022805,0,1
54,2780,Q St & Millard South High SW,,41.20538,-96.146273,0,1
66,2781,Q St & Walnut Grove Dr SW,,41.20538,-96.141083,0,1
71,2328,Q St & 144th SE,,41.2053674968153,-96.137969910828,0,1
8770,2329,Boulder Creek Park & Ride,,41.2039583219178,-96.1352616917808,0,1
7981,2330,Millard Ave & U St NE,,41.2021356923077,-96.1356264615385,0,1
8773,2315,Millard Ave & S Plz NE,,41.20381,-96.1331,0,1
88,2312,Q St & 138th SE,,41.2051158355438,-96.1290544880637,0,1
110,2731,Q St & 136th SW,,41.20521,-96.126916,0,1
8775,2722,Q St & 136th SW,,41.20518,-96.121708,0,1
121,2718,Q St & 132nd SW,,41.2051252225973,-96.1197358473974,0,1
8776,2712,Q St & Harry Andersen Ave SE,,41.2051562139519,-96.1176477396572,0,1
8777,2709,Q St & Deauville Dr SW,,41.2051771064825,-96.115910671201,0,1
139,2710,Q St & Oaks Ln SW,,41.20518,-96.112429,0,1
8778,2702,Q St & Oakair Dr SW,,41.2052445234572,-96.1078651028519,0,1
8779,2701,Q St & Magnolia SW,,41.2052687507248,-96.1050624057748,0,1
204,2694,Q St & 122nd SW,,41.20524,-96.102694,0,1
4476,3068,120th & P St SE,,41.2063432374516,-96.1005032780234,0,1
223,2313,120th & Ohern SE,,41.207812,-96.10053,0,1
9643,1905,28th & Farnam SE,,41.2574355023062,-95.9532363823982,0,1
9642,1622,Marathon Ventures Park & Ride,,41.17624,-95.925374,0,1
6425,1106,Galvin Rd & Harvell Dr SW,,41.1508719792746,-95.9174603212435,0,1
6426,2753,Bellevue University Park & Ride,,41.1487891177784,-95.9156894609,0,1
9559,2754,Galvin Rd & Wall NW,,41.1431061373866,-95.9107483157541,0,1
9288,2755,Harlan Drive Park & Ride,,41.1405456595003,-95.9123730563626,0,1
9741,2757,Arboretum Dr. & Lied Activity Center SW,,41.1417774430264,-95.9288320720146,0,1
9618,3280,Metro College TC Bay 8,,41.206405,-95.956628,0,1
8975,3184,84th at Q St SW,,41.2046954789994,-96.0430803860454,0,1
1297,1632,84th & Park Dr SW,,41.2002550701764,-96.0431180519727,0,1
1295,1975,84th & Madison NW,,41.1958266868205,-96.0430734062352,0,1
9126,1979,84th & Harrison SW,,41.190358,-96.04307,0,1
1280,1985,84th & Park View Blvd SW,,41.1873764395032,-96.04308376515,0,1
1304,2009,84th & Summer Dr NW,,41.1835255953883,-96.0431081802705,0,1
1273,2014,84th & Brentwood Dr SW,,41.1794,-96.04313,0,1
8979,2030,84th & Giles Rd SW,,41.1758345416047,-96.0431627392372,0,1
4484,2061,Washington & Cary NW,,41.172673,-96.04313,0,1
1267,2077,Washington & Centennial Rd NW,,41.169031,-96.04311,0,1
7231,1153,Washington & Tara Plz Park & Ride,,41.1659670700246,-96.0420709017218,0,1
1266,2084,Washington & Centennial Rd SE,,41.168624,-96.04295,0,1
8981,2105,Washington & Cary SE,,41.172412,-96.04297,0,1
8982,2104,84th & Giles Rd NE,,41.17681,-96.04298,0,1
8983,1945,84th & Brentwood Dr NE,,41.18035,-96.04297,0,1
1275,1944,84th & Summer Dr SE,,41.1823725177737,-96.0429538330964,0,1
9133,1943,84th & Park View Blvd NE,,41.188405,-96.04293,0,1
1286,1150,84th & Harrison SE,,41.1901770538661,-96.042911037343,0,1
1294,1951,84th & Madison SE,,41.195527,-96.04292,0,1
8787,1968,84th & Park Dr NE,,41.2014349365108,-96.0429437037723,0,1
8985,1898,84th & Q St SE,,41.205049689409,-96.0429360519635,0,1
7695,1700,Lakeside Park & Ride SW,,41.236695,-96.178515,0,1
9389,1701,Lakeside Plz & 169th NE,,41.2350120693642,-96.1791465491329,0,1
9390,1702,Lakeside Hills Plz & 171st NE,,41.2366089531013,-96.1819060287444,0,1
8742,1833,W Center & 171st SE,,41.2340688777883,-96.1815734897932,0,1
8743,1832,W Center & 168th SE,,41.23401,-96.17609,0,1
8744,1829,W Center & 165th Ave SE,,41.2340026437435,-96.1704696832424,0,1
8745,1821,W Center & 160th SE,,41.23393,-96.164355,0,1
8746,1817,W Center & 156th SW,,41.23392,-96.160065,0,1
8733,2695,W Center & 151st SE,,41.2340331818923,-96.1484713662316,0,1
8748,1796,W Center & 148th SE,,41.2339296635644,-96.1457687043564,0,1
8749,1782,W Center & 146th SE,,41.2338150854259,-96.1419763014511,0,1
9391,2693,W Center & 144th SW,,41.2337971202958,-96.1389346169269,0,1
9537,2692,Oakview Park & Ride MB,,41.231872925816,-96.1361770207715,0,1
2351,1670,144th & W Center NW,,41.2339027441821,-96.1392686979764,0,1
7697,1690,146th & W Center NW,,41.2339596421357,-96.1430626469474,0,1
8731,1850,148th & W Center NE,,41.2340120960604,-96.1453150652995,0,1
8735,1864,156th & W Center NW,,41.23404,-96.159653,0,1
8736,1868,158th Plz & W Center NE,,41.23404,-96.162959,0,1
8737,1739,160th & W Center NW,,41.2340539735385,-96.1658164916923,0,1
7923,1740,165th Ave & W Center NW,,41.2341527846572,-96.172750075495,0,1
8738,1741,168th & W Center NE,,41.2341655390657,-96.1763702269499,0,1
8739,1735,168th & Gold SE,,41.235184,-96.17689,0,1
8740,1724,168th & Lakeside Hills Plz NW,,41.2375244224726,-96.1773621678032,0,1
9289,2756,Lied Actity Center Park & Ride,,41.1420117547859,-95.9287643819508,0,1
9290,2758,Fort Crook & Childs Rd SE,,41.1761665000001,-95.9262755,0,1
